source,source_id,name,rating,review_count,price,is_closed,phone,display_phone,url,latitude,longitude,distance_to_ucf_miles,address1,address2,address3,city,state,zip_code,full_address
yelp,x96GrCPiqmRbQVVfJnKOew,Which Wich,5.0,1,,False,+14078236277,(407) 823-6277,https://www.yelp.com/biz/which-wich-orlando-4?adjust_creative=XnY__OJbDP9eLQ62PmQlPw&utm_campaign=yelp_api_v3&utm_medium=api_v3_business_search&utm_source=XnY__OJbDP9eLQ62PmQlPw,28.60185139431791,-81.20025513201875,0.03905574035875167,12715 Pegasus Dr,,,Orlando,FL,32816,"12715 Pegasus Dr, Orlando, FL 32816"
yelp,7kiwG4kTapcD-8aGW87iKA,Aurora At The Celeste,4.4,281,$$$,False,+14072074700,(407) 207-4700,https://www.yelp.com/biz/aurora-at-the-celeste-orlando?adjust_creative=XnY__OJbDP9eLQ62PmQlPw&utm_campaign=yelp_api_v3&utm_medium=api_v3_business_search&utm_source=XnY__OJbDP9eLQ62PmQlPw,28.599134371619584,-81.207038,0.47754250232479,4105 N Alafaya Trl,,,Orlando,FL,32826,"4105 N Alafaya Trl, Orlando, FL 32826"
yelp,1s_5CutChvh7UjfsPXmnKw,Celeste Hotel,4.1,49,$$,False,+14072074700,(407) 207-4700,https://www.yelp.com/biz/celeste-hotel-orlando?adjust_creative=XnY__OJbDP9eLQ62PmQlPw&utm_campaign=yelp_api_v3&utm_medium=api_v3_business_search&utm_source=XnY__OJbDP9eLQ62PmQlPw,28.599083,-81.207411,0.4992190312169216,4105 N Alafaya Trl,,,Orlando,FL,32826,"4105 N Alafaya Trl, Orlando, FL 32826"
yelp,gESBiku1Vm0L9TqQ3-cdoQ,Omelet Bar,4.1,555,$$,False,+14077041597,(407) 704-1597,https://www.yelp.com/biz/omelet-bar-orlando?adjust_creative=XnY__OJbDP9eLQ62PmQlPw&utm_campaign=yelp_api_v3&utm_medium=api_v3_business_search&utm_source=XnY__OJbDP9eLQ62PmQlPw,28.6002851,-81.2081685,0.510799266122922,12250 Strategy Blvd,Ste 407,,Orlando,FL,32817,"12250 Strategy Blvd, Ste 407, Orlando, FL 32817"
yelp,cQqDl2LsQw_JpbC-cu3KvA,Spice Indian Grill Orlando,4.4,182,$$,False,+14073509530,(407) 350-9530,https://www.yelp.com/biz/spice-indian-grill-orlando?adjust_creative=XnY__OJbDP9eLQ62PmQlPw&utm_campaign=yelp_api_v3&utm_medium=api_v3_business_search&utm_source=XnY__OJbDP9eLQ62PmQlPw,28.6060694,-81.2082469,0.5554332484462657,4498 N Alafaya Trl,Ste 306,,Orlando,FL,32826,"4498 N Alafaya Trl, Ste 306, Orlando, FL 32826"
yelp,l7rjq2NX8wwSzoZrNWZq1A,Nature's Table,4.2,13,,False,+14074125495,(407) 412-5495,https://www.yelp.com/biz/natures-table-orlando-24?adjust_creative=XnY__OJbDP9eLQ62PmQlPw&utm_campaign=yelp_api_v3&utm_medium=api_v3_business_search&utm_source=XnY__OJbDP9eLQ62PmQlPw,28.5990809,-81.2090885,0.5915270953372311,12101 University Blvd,Unit 213,,Orlando,FL,32817,"12101 University Blvd, Unit 213, Orlando, FL 32817"
yelp,ULU1v4LqU5LbRNnMXbWykg,Blaze Pizza,4.5,447,$$,False,+14072829453,(407) 282-9453,https://www.yelp.com/biz/blaze-pizza-orlando?adjust_creative=XnY__OJbDP9eLQ62PmQlPw&utm_campaign=yelp_api_v3&utm_medium=api_v3_business_search&utm_source=XnY__OJbDP9eLQ62PmQlPw,28.599694334117487,-81.20951917002735,0.601192276571954,4100 N Alafaya Trl,Ste 113,,Orlando,FL,32826,"4100 N Alafaya Trl, Ste 113, Orlando, FL 32826"
yelp,Aj-F_Pg3vERqjRM1tCfn6Q,Sus Hi Eatstation,4.2,650,$$,False,+13212909332,(321) 290-9332,https://www.yelp.com/biz/sus-hi-eatstation-orlando?adjust_creative=XnY__OJbDP9eLQ62PmQlPw&utm_campaign=yelp_api_v3&utm_medium=api_v3_business_search&utm_source=XnY__OJbDP9eLQ62PmQlPw,28.606056199572,-81.2091994285583,0.6070361987617924,4498 N Alafaya Trl,Ste 324,,Orlando,FL,32826,"4498 N Alafaya Trl, Ste 324, Orlando, FL 32826"
yelp,koWzzlPUIIxUhFmOeHB04g,Akshaya Patra,5.0,1,,False,,,https://www.yelp.com/biz/akshaya-patra-orlando?adjust_creative=XnY__OJbDP9eLQ62PmQlPw&utm_campaign=yelp_api_v3&utm_medium=api_v3_business_search&utm_source=XnY__OJbDP9eLQ62PmQlPw,28.6071320817106,-81.20975349999999,0.6706762012657315,12226 Corporate Blvd,Unit 172-192,,Orlando,FL,32817,"12226 Corporate Blvd, Unit 172-192, Orlando, FL 32817"
yelp,HP6usCWbGeIKd8xdK4KerQ,SoDough Square - UCF,4.4,50,$$,False,+14077572662,(407) 757-2662,https://www.yelp.com/biz/sodough-square-ucf-orlando-3?adjust_creative=XnY__OJbDP9eLQ62PmQlPw&utm_campaign=yelp_api_v3&utm_medium=api_v3_business_search&utm_source=XnY__OJbDP9eLQ62PmQlPw,28.607082,-81.209808,0.6718919076019801,12226 Corporate Blvd,Ste 118,,Orlando,FL,32817,"12226 Corporate Blvd, Ste 118, Orlando, FL 32817"
yelp,-FA84VJIyH2pguzNbZuBPw,Foxtail Coffee - UCF Corporate Blvd,5.0,2,,False,+14072035181,(407) 203-5181,https://www.yelp.com/biz/foxtail-coffee-ucf-corporate-blvd-orlando-2?adjust_creative=XnY__OJbDP9eLQ62PmQlPw&utm_campaign=yelp_api_v3&utm_medium=api_v3_business_search&utm_source=XnY__OJbDP9eLQ62PmQlPw,28.60753072183832,-81.20972773818816,0.6831889262049082,12226 Corporate Blvd,Ste 100,,Orlando,FL,32817,"12226 Corporate Blvd, Ste 100, Orlando, FL 32817"
yelp,RyP_OAZhu6TFgXDxv1sPCw,The Dough Show,4.5,319,$$,False,+16892079927,(689) 207-9927,https://www.yelp.com/biz/the-dough-show-orlando-2?adjust_creative=XnY__OJbDP9eLQ62PmQlPw&utm_campaign=yelp_api_v3&utm_medium=api_v3_business_search&utm_source=XnY__OJbDP9eLQ62PmQlPw,28.596637749703188,-81.2097304105892,0.7069742453165364,12140 Collegiate Way,Ste 175,,Orlando,FL,32817,"12140 Collegiate Way, Ste 175, Orlando, FL 32817"
yelp,DeJFMIbD7YVF5MwzAfbnWQ,Mochinut,4.3,37,$,False,+14072704435,(407) 270-4435,https://www.yelp.com/biz/mochinut-orlando-12?adjust_creative=XnY__OJbDP9eLQ62PmQlPw&utm_campaign=yelp_api_v3&utm_medium=api_v3_business_search&utm_source=XnY__OJbDP9eLQ62PmQlPw,28.596567,-81.210757,0.761821672883289,12094 Collegiate Way,,,Orlando,FL,32817,"12094 Collegiate Way, Orlando, FL 32817"
yelp,2a7pafBpuK4i_boSpijcjw,Desi Bistro,5.0,1,,False,+14072334692,(407) 233-4692,https://www.yelp.com/biz/desi-bistro-orlando?adjust_creative=XnY__OJbDP9eLQ62PmQlPw&utm_campaign=yelp_api_v3&utm_medium=api_v3_business_search&utm_source=XnY__OJbDP9eLQ62PmQlPw,28.596538517000695,-81.2113246,0.7922552248450417,12058 Collegiate Way,,,Orlando,FL,32817,"12058 Collegiate Way, Orlando, FL 32817"
yelp,x-3TP0SU8DuQf8IScVBQkQ,Raising Cane's Chicken Fingers,5.0,1,,False,+14078034165,(407) 803-4165,https://www.yelp.com/biz/raising-canes-chicken-fingers-orlando-6?adjust_creative=XnY__OJbDP9eLQ62PmQlPw&utm_campaign=yelp_api_v3&utm_medium=api_v3_business_search&utm_source=XnY__OJbDP9eLQ62PmQlPw,28.59726297858476,-81.21209217846656,0.8094484395478659,12025 Collegiate Way,,,Orlando,FL,32817,"12025 Collegiate Way, Orlando, FL 32817"
yelp,S23KE0ZK4vcHHsVuZpVRFg,3Natives,4.3,139,$$,False,+14075423491,(407) 542-3491,https://www.yelp.com/biz/3natives-oviedo?adjust_creative=XnY__OJbDP9eLQ62PmQlPw&utm_campaign=yelp_api_v3&utm_medium=api_v3_business_search&utm_source=XnY__OJbDP9eLQ62PmQlPw,28.61317,-81.20625,0.832408565080024,4250 Alafaya Trl,Ste 176,,Oviedo,FL,32765,"4250 Alafaya Trl, Ste 176, Oviedo, FL 32765"
yelp,x5oD1-3lEbL0BXW6qRDZRQ,Foxtail Coffee - University Blvd,4.2,153,$,False,+14076638699,(407) 663-8699,https://www.yelp.com/biz/foxtail-coffee-university-blvd-orlando?adjust_creative=XnY__OJbDP9eLQ62PmQlPw&utm_campaign=yelp_api_v3&utm_medium=api_v3_business_search&utm_source=XnY__OJbDP9eLQ62PmQlPw,28.597197354496828,-81.21301416827417,0.8619463641848174,12001 Collegiate Way,,,Orlando,FL,32817,"12001 Collegiate Way, Orlando, FL 32817"
yelp,hIISqgMPDH5vYjbtOwiomQ,Joury Ice Cream & Cafe,5.0,3,,False,+14075420795,(407) 542-0795,https://www.yelp.com/biz/joury-ice-cream-and-cafe-oviedo?adjust_creative=XnY__OJbDP9eLQ62PmQlPw&utm_campaign=yelp_api_v3&utm_medium=api_v3_business_search&utm_source=XnY__OJbDP9eLQ62PmQlPw,28.61381694879628,-81.20662816269112,0.8826479917445054,4250 Alafaya Trl,Ste 124,,Oviedo,FL,32765,"4250 Alafaya Trl, Ste 124, Oviedo, FL 32765"
yelp,rirAl4R82iP1UoOBDJSD7Q,DosBros,4.4,43,$$,False,+14072714127,(407) 271-4127,https://www.yelp.com/biz/dosbros-no-title?adjust_creative=XnY__OJbDP9eLQ62PmQlPw&utm_campaign=yelp_api_v3&utm_medium=api_v3_business_search&utm_source=XnY__OJbDP9eLQ62PmQlPw,28.598218,-81.213871,0.8839459381079066,11871 University Blvd,Ste 110,,Orlando,FL,32817,"11871 University Blvd, Ste 110, Orlando, FL 32817"
yelp,xRnhBtG63UNqQaC7wJUUZA,4 Rivers Smokehouse,4.0,526,$$,False,+13214920796,(321) 492-0796,https://www.yelp.com/biz/4-rivers-smokehouse-orlando-3?adjust_creative=XnY__OJbDP9eLQ62PmQlPw&utm_campaign=yelp_api_v3&utm_medium=api_v3_business_search&utm_source=XnY__OJbDP9eLQ62PmQlPw,28.597167962714995,-81.21378671226806,0.9055611736707547,11764 University Blvd,,,Orlando,FL,32817,"11764 University Blvd, Orlando, FL 32817"
yelp,cb6XFaUrSLhTWpCuOCgCAg,Senor Taco,4.6,28,,False,+14072379019,(407) 237-9019,https://www.yelp.com/biz/senor-taco-orlando?adjust_creative=XnY__OJbDP9eLQ62PmQlPw&utm_campaign=yelp_api_v3&utm_medium=api_v3_business_search&utm_source=XnY__OJbDP9eLQ62PmQlPw,28.598419311730424,-81.21909275650978,1.1845238061975596,11565 University Blvd,Ste 5,,Orlando,FL,32817,"11565 University Blvd, Ste 5, Orlando, FL 32817"
yelp,YUQ6-6dHKSJQxL8ZLWhe2g,Mochibae,4.6,16,,False,+14074323676,(407) 432-3676,https://www.yelp.com/biz/mochibae-no-title?adjust_creative=XnY__OJbDP9eLQ62PmQlPw&utm_campaign=yelp_api_v3&utm_medium=api_v3_business_search&utm_source=XnY__OJbDP9eLQ62PmQlPw,28.5983587038341,-81.21910690395093,1.1863375566670906,11565 University Blvd,Ste 4,,Orlando,FL,32817,"11565 University Blvd, Ste 4, Orlando, FL 32817"
yelp,fUT3wQ1uwkUqQOqxYeWPxg,Happy Lemon,4.4,78,$,False,+14076015033,(407) 601-5033,https://www.yelp.com/biz/happy-lemon-no-title-2?adjust_creative=XnY__OJbDP9eLQ62PmQlPw&utm_campaign=yelp_api_v3&utm_medium=api_v3_business_search&utm_source=XnY__OJbDP9eLQ62PmQlPw,28.5982,-81.21919,1.1938560918986352,11565 University Blvd,,,Orlando,FL,32817,"11565 University Blvd, Orlando, FL 32817"
yelp,hXMnuwm60BJLTajbQOgPxA,Lineage Cafe and Bakery,4.5,103,$,False,,,https://www.yelp.com/biz/lineage-cafe-and-bakery-orlando?adjust_creative=XnY__OJbDP9eLQ62PmQlPw&utm_campaign=yelp_api_v3&utm_medium=api_v3_business_search&utm_source=XnY__OJbDP9eLQ62PmQlPw,28.59716,-81.21905,1.205228483618845,11556 University Blvd,,,Orlando,FL,32817,"11556 University Blvd, Orlando, FL 32817"
yelp,GFVxe4gtWZwlILWp1qPTLg,Lazy Moon Pizza,4.3,942,$$,False,+14076582396,(407) 658-2396,https://www.yelp.com/biz/lazy-moon-pizza-orlando-4?adjust_creative=XnY__OJbDP9eLQ62PmQlPw&utm_campaign=yelp_api_v3&utm_medium=api_v3_business_search&utm_source=XnY__OJbDP9eLQ62PmQlPw,28.5981983592022,-81.2194356507873,1.208343664923658,11551 University Blvd,,,Orlando,FL,32817,"11551 University Blvd, Orlando, FL 32817"
yelp,r-X4Hkgc2-QthQuxSyeJvQ,Kyuramen x TBaar- UCF,4.1,216,$$,False,+14072194919,(407) 219-4919,https://www.yelp.com/biz/kyuramen-x-tbaar-ucf-orlando?adjust_creative=XnY__OJbDP9eLQ62PmQlPw&utm_campaign=yelp_api_v3&utm_medium=api_v3_business_search&utm_source=XnY__OJbDP9eLQ62PmQlPw,28.598451375684174,-81.22073997438933,1.2814536576780013,3402 Technological Ave,,,Orlando,FL,32817,"3402 Technological Ave, Orlando, FL 32817"
yelp,A1VeLdTlPeY40-_68bcXUw,Knights Out Pub & Eatery,4.2,18,$$,False,+14072708962,(407) 270-8962,https://www.yelp.com/biz/knights-out-pub-and-eatery-orlando?adjust_creative=XnY__OJbDP9eLQ62PmQlPw&utm_campaign=yelp_api_v3&utm_medium=api_v3_business_search&utm_source=XnY__OJbDP9eLQ62PmQlPw,28.598558913688223,-81.22095874243071,1.2928772437207048,3402 Technological Ave,Ste 202,,Orlando,FL,32817,"3402 Technological Ave, Ste 202, Orlando, FL 32817"
yelp,oF344ESz0ZbbAG4Aa7wfXw,Build My Burgers,4.1,211,,False,+14079855495,(407) 985-5495,https://www.yelp.com/biz/build-my-burgers-orlando-2?adjust_creative=XnY__OJbDP9eLQ62PmQlPw&utm_campaign=yelp_api_v3&utm_medium=api_v3_business_search&utm_source=XnY__OJbDP9eLQ62PmQlPw,28.598267,-81.22105,1.3025700808807212,3402 Technological Ave,Ste 136,,Orlando,FL,32817,"3402 Technological Ave, Ste 136, Orlando, FL 32817"
yelp,rAFwZ8QtoJTH-Nm9jDnR8A,City Pho & Grill,4.5,21,,False,+14072038658,(407) 203-8658,https://www.yelp.com/biz/city-pho-and-grill-orlando?adjust_creative=XnY__OJbDP9eLQ62PmQlPw&utm_campaign=yelp_api_v3&utm_medium=api_v3_business_search&utm_source=XnY__OJbDP9eLQ62PmQlPw,28.598226505525716,-81.22108627440272,1.3053326103266054,3402 Technological Ave,Ste 124,,Orlando,FL,32817,"3402 Technological Ave, Ste 124, Orlando, FL 32817"
yelp,ih9bq5NrjGJul8T4ktmCng,Soupa Saiyan 3,4.3,82,$$,False,+14074404687,(407) 440-4687,https://www.yelp.com/biz/soupa-saiyan-3-orlando?adjust_creative=XnY__OJbDP9eLQ62PmQlPw&utm_campaign=yelp_api_v3&utm_medium=api_v3_business_search&utm_source=XnY__OJbDP9eLQ62PmQlPw,28.59818,-81.22297,1.4176638062094957,11325 University Blvd,,,Orlando,FL,32817,"11325 University Blvd, Orlando, FL 32817"
yelp,O8_uEW7j8FO61ofF1KgR5Q,Beirut Grill and Deli,4.4,51,,False,+13217654139,(321) 765-4139,https://www.yelp.com/biz/beirut-grill-and-deli-oviedo?adjust_creative=XnY__OJbDP9eLQ62PmQlPw&utm_campaign=yelp_api_v3&utm_medium=api_v3_business_search&utm_source=XnY__OJbDP9eLQ62PmQlPw,28.623678360617134,-81.208376,1.5535313789022798,3100 Alafaya Trl,Ste 1006,,Oviedo,FL,32765,"3100 Alafaya Trl, Ste 1006, Oviedo, FL 32765"
yelp,NCcUQ-SBPTGSp1oFRHoRvA,Pepe's Cantina,4.2,90,,False,+14075420603,(407) 542-0603,https://www.yelp.com/biz/pepes-cantina-oviedo?adjust_creative=XnY__OJbDP9eLQ62PmQlPw&utm_campaign=yelp_api_v3&utm_medium=api_v3_business_search&utm_source=XnY__OJbDP9eLQ62PmQlPw,28.62371777252869,-81.2083652753313,1.5558988996653373,3100 Alafaya Trail,,,Oviedo,FL,32765,"3100 Alafaya Trail, Oviedo, FL 32765"
yelp,SpLFU9x9fqX66XylC8qoGA,Gourmet 2 Go,4.6,15,,False,+14075421528,(407) 542-1528,https://www.yelp.com/biz/gourmet-2-go-oviedo?adjust_creative=XnY__OJbDP9eLQ62PmQlPw&utm_campaign=yelp_api_v3&utm_medium=api_v3_business_search&utm_source=XnY__OJbDP9eLQ62PmQlPw,28.62517,-81.20721,1.6312939656428447,3050 Alafaya Trl,Ste 1008,,Oviedo,FL,32765,"3050 Alafaya Trl, Ste 1008, Oviedo, FL 32765"
yelp,pl2X239BqQASbaZn_hr_rQ,Godfathers Pizza,4.7,3,,False,+14073662162,(407) 366-2162,https://www.yelp.com/biz/godfathers-pizza-oviedo?adjust_creative=XnY__OJbDP9eLQ62PmQlPw&utm_campaign=yelp_api_v3&utm_medium=api_v3_business_search&utm_source=XnY__OJbDP9eLQ62PmQlPw,28.62603,-81.20856,1.7114165571011197,3015 Alafaya Trl,,,Oviedo,FL,32765,"3015 Alafaya Trl, Oviedo, FL 32765"
yelp,wLXfBALxXsVXnvQwKgDB1g,Wawa,4.2,31,$,False,+14073590144,(407) 359-0144,https://www.yelp.com/biz/wawa-oviedo?adjust_creative=XnY__OJbDP9eLQ62PmQlPw&utm_campaign=yelp_api_v3&utm_medium=api_v3_business_search&utm_source=XnY__OJbDP9eLQ62PmQlPw,28.627070964703,-81.2081409618258,1.7730018662407248,3000 Alafaya Trail,,,Oviedo,FL,32765,"3000 Alafaya Trail, Oviedo, FL 32765"
yelp,jFdlENO0HmIRbky9RIBGbA,Yulnn Meals & Sips,4.8,44,,False,+14078660333,(407) 866-0333,https://www.yelp.com/biz/yulnn-meals-and-sips-alafaya-2?adjust_creative=XnY__OJbDP9eLQ62PmQlPw&utm_campaign=yelp_api_v3&utm_medium=api_v3_business_search&utm_source=XnY__OJbDP9eLQ62PmQlPw,28.568411843019945,-81.2052013,2.3686656269296447,11905 E Colonial Dr,,,Alafaya,FL,32826,"11905 E Colonial Dr, Alafaya, FL 32826"
yelp,QgkEQvj-TJI58ifSul0Tcg,Nomi Sushi & Hibachi,4.8,45,$$,False,+13214986234,(321) 498-6234,https://www.yelp.com/biz/nomi-sushi-and-hibachi-orlando-2?adjust_creative=XnY__OJbDP9eLQ62PmQlPw&utm_campaign=yelp_api_v3&utm_medium=api_v3_business_search&utm_source=XnY__OJbDP9eLQ62PmQlPw,28.56786746677573,-81.19989654959586,2.3860027158536776,12189 E Colonial Dr,Ste 110,,Orlando,FL,32826,"12189 E Colonial Dr, Ste 110, Orlando, FL 32826"
yelp,IC5P-H6ik5FyM4oZaJCntg,Haraz Coffee House Orlando,4.6,41,$$,False,+14072035002,(407) 203-5002,https://www.yelp.com/biz/haraz-coffee-house-orlando-orlando?adjust_creative=XnY__OJbDP9eLQ62PmQlPw&utm_campaign=yelp_api_v3&utm_medium=api_v3_business_search&utm_source=XnY__OJbDP9eLQ62PmQlPw,28.5681491,-81.20717069999999,2.405079929456857,1737 N Alafaya Trl,,,Orlando,FL,32826,"1737 N Alafaya Trl, Orlando, FL 32826"
yelp,m66iFIV1UXCUY82sn_Ubgg,Piesano's Stone Fired Pizza,4.2,124,$$,False,+14073377499,(407) 337-7499,https://www.yelp.com/biz/piesanos-stone-fired-pizza-orlando-2?adjust_creative=XnY__OJbDP9eLQ62PmQlPw&utm_campaign=yelp_api_v3&utm_medium=api_v3_business_search&utm_source=XnY__OJbDP9eLQ62PmQlPw,28.56750167342149,-81.19529955089092,2.4287708637679883,12231 E Colonial Dr,Ste 220,,Orlando,FL,32826,"12231 E Colonial Dr, Ste 220, Orlando, FL 32826"
yelp,hATzdBHZ5z-lobaxlTsbVQ,Saucy! by KFC,5.0,2,,False,+16893372311,(689) 337-2311,https://www.yelp.com/biz/saucy-by-kfc-orlando-2?adjust_creative=XnY__OJbDP9eLQ62PmQlPw&utm_campaign=yelp_api_v3&utm_medium=api_v3_business_search&utm_source=XnY__OJbDP9eLQ62PmQlPw,28.56653,-81.19964,2.4785380757480224,12195 E Colonial Dr,,,Orlando,FL,32826,"12195 E Colonial Dr, Orlando, FL 32826"
yelp,3mVlWmARhgPDoOqKtdBuUA,Siam Garden Thai Restaurant,4.3,277,$$,False,+14076352525,(407) 635-2525,https://www.yelp.com/biz/siam-garden-thai-restaurant-orlando-8?adjust_creative=XnY__OJbDP9eLQ62PmQlPw&utm_campaign=yelp_api_v3&utm_medium=api_v3_business_search&utm_source=XnY__OJbDP9eLQ62PmQlPw,28.5668007,-81.2051769,2.478889195813737,11903 E Colonial Dr,Ste 11903,,Orlando,FL,32826,"11903 E Colonial Dr, Ste 11903, Orlando, FL 32826"
yelp,KVReSFb2dwgjnSkl1Kn2vQ,kreyol kafe & Bakery,4.2,77,$,False,+14079306731,(407) 930-6731,https://www.yelp.com/biz/kreyol-kafe-and-bakery-orlando-4?adjust_creative=XnY__OJbDP9eLQ62PmQlPw&utm_campaign=yelp_api_v3&utm_medium=api_v3_business_search&utm_source=XnY__OJbDP9eLQ62PmQlPw,28.5658447468051,-81.2039604038,2.5365640749333727,12014 E Colonial Dr,Ste 120,,Orlando,FL,32826,"12014 E Colonial Dr, Ste 120, Orlando, FL 32826"
yelp,12CqiOV1GVOO_OknEgUJ9A,Cedar Halal Food & Grill,4.4,136,$,False,+14073818004,(407) 381-8004,https://www.yelp.com/biz/cedar-halal-food-and-grill-orlando?adjust_creative=XnY__OJbDP9eLQ62PmQlPw&utm_campaign=yelp_api_v3&utm_medium=api_v3_business_search&utm_source=XnY__OJbDP9eLQ62PmQlPw,28.56554,-81.20181,2.5488957847020557,12100 E Colonial Dr,,,Orlando,FL,32826,"12100 E Colonial Dr, Orlando, FL 32826"
yelp,Coj5mUSaIzdZylxPQelg9w,Cheba Hut Toasted Subs,4.6,135,$,False,+14072504120,(407) 250-4120,https://www.yelp.com/biz/cheba-hut-toasted-subs-orlando-2?adjust_creative=XnY__OJbDP9eLQ62PmQlPw&utm_campaign=yelp_api_v3&utm_medium=api_v3_business_search&utm_source=XnY__OJbDP9eLQ62PmQlPw,28.565536,-81.2017,2.5489090286191454,12100 E Colonial Dr,Unit A,,Orlando,FL,32826,"12100 E Colonial Dr, Unit A, Orlando, FL 32826"
yelp,DeqeZjU9NgybUuILO94XVQ,Mark's Jamaican Bar and Grill,4.3,309,$$,False,+14076998800,(407) 699-8800,https://www.yelp.com/biz/marks-jamaican-bar-and-grill-orlando?adjust_creative=XnY__OJbDP9eLQ62PmQlPw&utm_campaign=yelp_api_v3&utm_medium=api_v3_business_search&utm_source=XnY__OJbDP9eLQ62PmQlPw,28.5982108967431,-81.2424430623651,2.5848990224286066,10173 University Blvd,,,Orlando,FL,32817,"10173 University Blvd, Orlando, FL 32817"
yelp,532xMg8lsM36j4JwmAQubA,Johnny's Diner,4.4,84,,False,+14076776776,(407) 677-6776,https://www.yelp.com/biz/johnnys-diner-orlando-2?adjust_creative=XnY__OJbDP9eLQ62PmQlPw&utm_campaign=yelp_api_v3&utm_medium=api_v3_business_search&utm_source=XnY__OJbDP9eLQ62PmQlPw,28.59804,-81.24244273347956,2.586230060622484,10169 University Blvd,,,Orlando,FL,32817,"10169 University Blvd, Orlando, FL 32817"
yelp,wk6GQbFTJ-6r_wqno9uiag,Viet-Nomz Waterford,4.4,528,$$,False,+14076014113,(407) 601-4113,https://www.yelp.com/biz/viet-nomz-waterford-orlando?adjust_creative=XnY__OJbDP9eLQ62PmQlPw&utm_campaign=yelp_api_v3&utm_medium=api_v3_business_search&utm_source=XnY__OJbDP9eLQ62PmQlPw,28.5654772571469,-81.208350174129,2.5997618389361032,11798 E Colonial Dr,,,Orlando,FL,32817,"11798 E Colonial Dr, Orlando, FL 32817"
yelp,Q2_nlXuhXfBhvkOo1Qiaow,King Bao - Alafaya,4.4,187,$,False,+14079142544,(407) 914-2544,https://www.yelp.com/biz/king-bao-alafaya-orlando-4?adjust_creative=XnY__OJbDP9eLQ62PmQlPw&utm_campaign=yelp_api_v3&utm_medium=api_v3_business_search&utm_source=XnY__OJbDP9eLQ62PmQlPw,28.565479598657785,-81.209253,2.6107037061247564,11768 E Colonial Dr,,,Orlando,FL,32817,"11768 E Colonial Dr, Orlando, FL 32817"
yelp,P2rmZJuOsYEDLxyF0tdHUA,Dang Boba & Musubi House,4.3,183,$,False,+14079302233,(407) 930-2233,https://www.yelp.com/biz/dang-boba-and-musubi-house-orlando-2?adjust_creative=XnY__OJbDP9eLQ62PmQlPw&utm_campaign=yelp_api_v3&utm_medium=api_v3_business_search&utm_source=XnY__OJbDP9eLQ62PmQlPw,28.565391756400377,-81.20915109386563,2.6153292783760183,11772 E Colonial Dr,,,Orlando,FL,32817,"11772 E Colonial Dr, Orlando, FL 32817"
yelp,n4diWKcRvAFctwdRA6IPMg,Ahmed Indian Restaurant UCF,4.2,201,$$,False,+14075747177,(407) 574-7177,https://www.yelp.com/biz/ahmed-indian-restaurant-ucf-orlando?adjust_creative=XnY__OJbDP9eLQ62PmQlPw&utm_campaign=yelp_api_v3&utm_medium=api_v3_business_search&utm_source=XnY__OJbDP9eLQ62PmQlPw,28.596609780163856,-81.24351483068847,2.6638920597476687,10042 University Blvd,,,Orlando,FL,32817,"10042 University Blvd, Orlando, FL 32817"
yelp,Qj3bLY021R8Z87iA4GIR4w,Las Patronas Mexican Restaurant ,4.2,40,,False,+14075719313,(407) 571-9313,https://www.yelp.com/biz/las-patronas-mexican-restaurant-orlando?adjust_creative=XnY__OJbDP9eLQ62PmQlPw&utm_campaign=yelp_api_v3&utm_medium=api_v3_business_search&utm_source=XnY__OJbDP9eLQ62PmQlPw,28.59624,-81.24357,2.6711571874289026,10034 University Blvd,,,Orlando,FL,32817,"10034 University Blvd, Orlando, FL 32817"
yelp,7svMP3MzaqnTxzOT8PChyw,First Watch,4.0,264,$$,False,+14078093447,(407) 809-3447,https://www.yelp.com/biz/first-watch-orlando-26?adjust_creative=XnY__OJbDP9eLQ62PmQlPw&utm_campaign=yelp_api_v3&utm_medium=api_v3_business_search&utm_source=XnY__OJbDP9eLQ62PmQlPw,28.56369222791671,-81.20794579674964,2.7164857964120372,1448 N Alafaya Trl,Ste 150,,Orlando,FL,32828,"1448 N Alafaya Trl, Ste 150, Orlando, FL 32828"
yelp,rhJnFEe4e92tRTnhUq8HoA,His Jamaican Pot Her American Dish,5.0,2,,False,+14076339602,(407) 633-9602,https://www.yelp.com/biz/his-jamaican-pot-her-american-dish-orlando?adjust_creative=XnY__OJbDP9eLQ62PmQlPw&utm_campaign=yelp_api_v3&utm_medium=api_v3_business_search&utm_source=XnY__OJbDP9eLQ62PmQlPw,28.5646,-81.1866,2.7371567523101796,12914 E Colonial Dr,,,Orlando,FL,32826,"12914 E Colonial Dr, Orlando, FL 32826"
yelp,CSHiunmos7rw5-jb1hbZVg,Eastside Asian Market,4.5,181,$,False,+14076158881,(407) 615-8881,https://www.yelp.com/biz/eastside-asian-market-orlando?adjust_creative=XnY__OJbDP9eLQ62PmQlPw&utm_campaign=yelp_api_v3&utm_medium=api_v3_business_search&utm_source=XnY__OJbDP9eLQ62PmQlPw,28.56471,-81.18587,2.7435198526011413,12950 E Colonial Dr,Ste 106,,Orlando,FL,32826,"12950 E Colonial Dr, Ste 106, Orlando, FL 32826"
yelp,k2-2ZyfbwLlV2-n5NbCzvA,Lans Kitchen,4.5,22,,False,+14074031982,(407) 403-1982,https://www.yelp.com/biz/lans-kitchen-alafaya?adjust_creative=XnY__OJbDP9eLQ62PmQlPw&utm_campaign=yelp_api_v3&utm_medium=api_v3_business_search&utm_source=XnY__OJbDP9eLQ62PmQlPw,28.5648,-81.18503,2.7541154773037237,13100 E Colonial Dr,,,Alafaya,FL,32828,"13100 E Colonial Dr, Alafaya, FL 32828"
yelp,GQjPWYvEMk86W3GYQ2kyrA,France-Ella's Caribbean Cuisine,4.4,18,,False,+14074800084,(407) 480-0084,https://www.yelp.com/biz/france-ellas-caribbean-cuisine-orlando?adjust_creative=XnY__OJbDP9eLQ62PmQlPw&utm_campaign=yelp_api_v3&utm_medium=api_v3_business_search&utm_source=XnY__OJbDP9eLQ62PmQlPw,28.56454023194128,-81.18509382020531,2.769777333547984,13150 E Colonial Dr,,,Orlando,FL,32826,"13150 E Colonial Dr, Orlando, FL 32826"
yelp,9IGlPsP7UINgt0wDCtJk9g,Safe Haven Nutrition,5.0,2,,False,,,https://www.yelp.com/biz/safe-haven-nutrition-no-title?adjust_creative=XnY__OJbDP9eLQ62PmQlPw&utm_campaign=yelp_api_v3&utm_medium=api_v3_business_search&utm_source=XnY__OJbDP9eLQ62PmQlPw,28.59583,-81.24532,2.780502562184606,3920 N Dean Rd,,,Orlando,FL,32817,"3920 N Dean Rd, Orlando, FL 32817"
yelp,AHuxRtNLfwKe2r-RcOec8g,Nasry's Pizza & Grill,4.1,18,,False,+14077047444,(407) 704-7444,https://www.yelp.com/biz/nasrys-pizza-and-grill-orlando?adjust_creative=XnY__OJbDP9eLQ62PmQlPw&utm_campaign=yelp_api_v3&utm_medium=api_v3_business_search&utm_source=XnY__OJbDP9eLQ62PmQlPw,28.5643842,-81.18336230000001,2.816118010576329,13212 E Colonial Dr,Ste C1-C,,Orlando,FL,32826,"13212 E Colonial Dr, Ste C1-C, Orlando, FL 32826"
yelp,k-cyDkIR1ezQrDj8eNboew,China Taste,5.0,1,,False,+14078007030,(407) 800-7030,https://www.yelp.com/biz/china-taste-union-park?adjust_creative=XnY__OJbDP9eLQ62PmQlPw&utm_campaign=yelp_api_v3&utm_medium=api_v3_business_search&utm_source=XnY__OJbDP9eLQ62PmQlPw,28.57116751126871,-81.23045549999999,2.837002525736234,10681 E Colonial Dr,Ste F2,,Union Park,FL,32817,"10681 E Colonial Dr, Ste F2, Union Park, FL 32817"
yelp,JdwifpC41vIh2sXwE2SDaQ,Vongs BBQ,5.0,1,,False,+13212768853,(321) 276-8853,https://www.yelp.com/biz/vongs-bbq-union-park?adjust_creative=XnY__OJbDP9eLQ62PmQlPw&utm_campaign=yelp_api_v3&utm_medium=api_v3_business_search&utm_source=XnY__OJbDP9eLQ62PmQlPw,28.57115223146607,-81.2304565732403,2.8378479949918503,10681 E Colonial Dr,,,Union Park,FL,32817,"10681 E Colonial Dr, Union Park, FL 32817"
yelp,noOUkFJ1TyIMXePZXMQlbw,TT Crepes,4.8,5,,False,,,https://www.yelp.com/biz/tt-crepes-union-park?adjust_creative=XnY__OJbDP9eLQ62PmQlPw&utm_campaign=yelp_api_v3&utm_medium=api_v3_business_search&utm_source=XnY__OJbDP9eLQ62PmQlPw,28.571103,-81.230476,2.8412013932694102,10681 E Colonial Dr,,,Union Park,FL,32817,"10681 E Colonial Dr, Union Park, FL 32817"
yelp,D-NyPKKw4RLaxlSM1rj-MQ,Way2go Thai,4.8,4,,False,+14074125720,(407) 412-5720,https://www.yelp.com/biz/way2go-thai-union-park?adjust_creative=XnY__OJbDP9eLQ62PmQlPw&utm_campaign=yelp_api_v3&utm_medium=api_v3_business_search&utm_source=XnY__OJbDP9eLQ62PmQlPw,28.570975,-81.230405,2.8451533676488987,10681 E Colonial Dr,,,Union Park,FL,32817,"10681 E Colonial Dr, Union Park, FL 32817"
yelp,Cr33Sp-lnfd9eqh7ahtyAQ,Amore Pizzeria and Italian Restaurant,4.8,11,,False,+14072031896,(407) 203-1896,https://www.yelp.com/biz/amore-pizzeria-and-italian-restaurant-alafaya?adjust_creative=XnY__OJbDP9eLQ62PmQlPw&utm_campaign=yelp_api_v3&utm_medium=api_v3_business_search&utm_source=XnY__OJbDP9eLQ62PmQlPw,28.56368394597728,-81.18300698220777,2.869022095969147,13212 E Colonial Dr,,,Alafaya,FL,32826,"13212 E Colonial Dr, Alafaya, FL 32826"
yelp,PYp9fOYKtZOiQ3i8_uaT_A,Shahs Halal Food,4.2,35,,False,,,https://www.yelp.com/biz/shahs-halal-food-orlando?adjust_creative=XnY__OJbDP9eLQ62PmQlPw&utm_campaign=yelp_api_v3&utm_medium=api_v3_business_search&utm_source=XnY__OJbDP9eLQ62PmQlPw,28.569914,-81.229993,2.8857156086257687,10725 E Colonial Dr,Ste B,,Orlando,FL,32817,"10725 E Colonial Dr, Ste B, Orlando, FL 32817"
yelp,_EO6L3whXvM7Zeb1J9zgug,Sam's Dawg House,5.0,1,,False,+14077316444,(407) 731-6444,https://www.yelp.com/biz/sams-dawg-house-no-title?adjust_creative=XnY__OJbDP9eLQ62PmQlPw&utm_campaign=yelp_api_v3&utm_medium=api_v3_business_search&utm_source=XnY__OJbDP9eLQ62PmQlPw,28.568867360629895,-81.2306229760972,2.9660332973345027,2400 N Forsyth Rd,,,Orlando,FL,32807,"2400 N Forsyth Rd, Orlando, FL 32807"
yelp,KLMC4Tgin63xa2j9w8Im-w,J-Petal & Poke Waterford,4.5,138,,False,+14072379323,(407) 237-9323,https://www.yelp.com/biz/j-petal-and-poke-waterford-orlando-4?adjust_creative=XnY__OJbDP9eLQ62PmQlPw&utm_campaign=yelp_api_v3&utm_medium=api_v3_business_search&utm_source=XnY__OJbDP9eLQ62PmQlPw,28.559346,-81.208131,3.01439213873018,1100 N Alafaya Trl,Ste 130,,Orlando,FL,32828,"1100 N Alafaya Trl, Ste 130, Orlando, FL 32828"
yelp,zabg3jzVrVHD2gCYzhszCQ,Estilo Casero,4.9,25,$,False,+13219452000,(321) 945-2000,https://www.yelp.com/biz/estilo-casero-orlando?adjust_creative=XnY__OJbDP9eLQ62PmQlPw&utm_campaign=yelp_api_v3&utm_medium=api_v3_business_search&utm_source=XnY__OJbDP9eLQ62PmQlPw,28.56498304257637,-81.17418463800361,3.025865452037071,14200 E Colonial Dr,,,Orlando,FL,32826,"14200 E Colonial Dr, Orlando, FL 32826"
yelp,Xn_Vq6WvXpzvNU0xnApUxw,France Ellas Caribbean Cuisine,5.0,1,,False,+14073002892,(407) 300-2892,https://www.yelp.com/biz/france-ellas-caribbean-cuisine-orlando-2?adjust_creative=XnY__OJbDP9eLQ62PmQlPw&utm_campaign=yelp_api_v3&utm_medium=api_v3_business_search&utm_source=XnY__OJbDP9eLQ62PmQlPw,28.569110299774955,-81.23258167181763,3.0288785806106007,10520 East Colonial Dr,,,Orlando,FL,32817,"10520 East Colonial Dr, Orlando, FL 32817"
yelp,ORCImXryHa7e2EXmYdyKzA,Tacos N Grill,4.6,49,,False,+14072861735,(407) 286-1735,https://www.yelp.com/biz/tacos-n-grill-orlando?adjust_creative=XnY__OJbDP9eLQ62PmQlPw&utm_campaign=yelp_api_v3&utm_medium=api_v3_business_search&utm_source=XnY__OJbDP9eLQ62PmQlPw,28.56932193163364,-81.23362134495504,3.0593528109989796,10438 E Colonial Dr,,,Orlando,FL,32817,"10438 E Colonial Dr, Orlando, FL 32817"
yelp,DsAQyY00TqqP2zZkMVkRMQ,Chubby's Family Restaurant,4.2,214,$,False,+14073806006,(407) 380-6006,https://www.yelp.com/biz/chubbys-family-restaurant-orlando?adjust_creative=XnY__OJbDP9eLQ62PmQlPw&utm_campaign=yelp_api_v3&utm_medium=api_v3_business_search&utm_source=XnY__OJbDP9eLQ62PmQlPw,28.5693974327845,-81.2355588597107,3.134929163997917,10376 E Colonial Dr,Ste 124,,Orlando,FL,32817,"10376 E Colonial Dr, Ste 124, Orlando, FL 32817"
yelp,L6L8ctIeqsGjb65wktv4bg,CHIBI Ramen,4.0,435,$$,False,+14077307260,(407) 730-7260,https://www.yelp.com/biz/chibi-ramen-orlando?adjust_creative=XnY__OJbDP9eLQ62PmQlPw&utm_campaign=yelp_api_v3&utm_medium=api_v3_business_search&utm_source=XnY__OJbDP9eLQ62PmQlPw,28.557182804790056,-81.20537225359452,3.1405449291014897,869 North Alafaya Trl,,,Orlando,FL,32828,"869 North Alafaya Trl, Orlando, FL 32828"
yelp,6uVGsdLl3OwKmZYK0fL8dQ,Maroush  Food,4.4,81,$$,False,+14072707649,(407) 270-7649,https://www.yelp.com/biz/maroush-food-orlando?adjust_creative=XnY__OJbDP9eLQ62PmQlPw&utm_campaign=yelp_api_v3&utm_medium=api_v3_business_search&utm_source=XnY__OJbDP9eLQ62PmQlPw,28.55694660077051,-81.2016413349704,3.1419228822448,783 N Alafaya Trl,,,Orlando,FL,32828,"783 N Alafaya Trl, Orlando, FL 32828"
yelp,STtLaPOzWQcjvQ5nSE37aA,Churroworld,5.0,3,,False,+18633640099,(863) 364-0099,https://www.yelp.com/biz/churroworld-alafaya-6?adjust_creative=XnY__OJbDP9eLQ62PmQlPw&utm_campaign=yelp_api_v3&utm_medium=api_v3_business_search&utm_source=XnY__OJbDP9eLQ62PmQlPw,28.556919733163564,-81.20080615648835,3.142679214647421,413 North Alafaya Trl,,,Alafaya,FL,32828,"413 North Alafaya Trl, Alafaya, FL 32828"
yelp,jtXX2PeLlLq8hFAbIfFrTg,Ms Tea's Bento & Sushi,4.6,204,$$,False,+14072034496,(407) 203-4496,https://www.yelp.com/biz/ms-teas-bento-and-sushi-union-park?adjust_creative=XnY__OJbDP9eLQ62PmQlPw&utm_campaign=yelp_api_v3&utm_medium=api_v3_business_search&utm_source=XnY__OJbDP9eLQ62PmQlPw,28.568789337400975,-81.23502572732765,3.1437331940355437,10376 East Colonial Dr,Ste 126,,Union Park,FL,32817,"10376 East Colonial Dr, Ste 126, Union Park, FL 32817"
yelp,fMgJXt7EIAF0_XT1Fl6tgQ,Tikka Shack Indian Grub,4.5,26,,False,+13217654272,(321) 765-4272,https://www.yelp.com/biz/tikka-shack-indian-grub-oviedo?adjust_creative=XnY__OJbDP9eLQ62PmQlPw&utm_campaign=yelp_api_v3&utm_medium=api_v3_business_search&utm_source=XnY__OJbDP9eLQ62PmQlPw,28.647269723063346,-81.20894027055222,3.1462218493936436,1500 Alafaya Trl,Ste 1052,,Oviedo,FL,32765,"1500 Alafaya Trl, Ste 1052, Oviedo, FL 32765"
yelp,MCaHV1E4_Ai_t8eoADS_pw,Baba’s Halal,4.0,5,,False,,,https://www.yelp.com/biz/baba-s-halal-orlando?adjust_creative=XnY__OJbDP9eLQ62PmQlPw&utm_campaign=yelp_api_v3&utm_medium=api_v3_business_search&utm_source=XnY__OJbDP9eLQ62PmQlPw,28.557211,-81.207861,3.1575726539453606,688 N Alafaya Trl,Ste 103,,Orlando,FL,32828,"688 N Alafaya Trl, Ste 103, Orlando, FL 32828"
yelp,88FDp8wKJOvebcVG8RYyYg,Ahmed Indian Restaurant - Alafaya Trl,4.1,100,$$,False,+14074125853,(407) 412-5853,https://www.yelp.com/biz/ahmed-indian-restaurant-alafaya-trl-orlando?adjust_creative=XnY__OJbDP9eLQ62PmQlPw&utm_campaign=yelp_api_v3&utm_medium=api_v3_business_search&utm_source=XnY__OJbDP9eLQ62PmQlPw,28.5572061,-81.2079025,3.158283882232256,688 N Alafaya Trl,Ste 108,,Orlando,FL,32828,"688 N Alafaya Trl, Ste 108, Orlando, FL 32828"
yelp,bMPfKusLI8i6cZ5JIsWvJg,Juici Patties,4.5,51,,False,,,https://www.yelp.com/biz/juici-patties-orlando?adjust_creative=XnY__OJbDP9eLQ62PmQlPw&utm_campaign=yelp_api_v3&utm_medium=api_v3_business_search&utm_source=XnY__OJbDP9eLQ62PmQlPw,28.56881664504372,-81.2354296,3.15891479396781,10376 E Colonial Dr,Ste 117,,Orlando,FL,32817,"10376 E Colonial Dr, Ste 117, Orlando, FL 32817"
yelp,NQp9tJxgoOuyRQGdgr3BRA,Cup of Love Cafe,4.4,87,,False,+14075428001,(407) 542-8001,https://www.yelp.com/biz/cup-of-love-cafe-oviedo?adjust_creative=XnY__OJbDP9eLQ62PmQlPw&utm_campaign=yelp_api_v3&utm_medium=api_v3_business_search&utm_source=XnY__OJbDP9eLQ62PmQlPw,28.6475330737819,-81.2089643999934,3.1644012051879367,1500 Alafaya Trl,Ste 1024,,Oviedo,FL,32765,"1500 Alafaya Trl, Ste 1024, Oviedo, FL 32765"
yelp,GTVOlps3_pCc9urmGc02Qg,Fresh Kitchen,4.3,475,$$,False,+14078662219,(407) 866-2219,https://www.yelp.com/biz/fresh-kitchen-orlando?adjust_creative=XnY__OJbDP9eLQ62PmQlPw&utm_campaign=yelp_api_v3&utm_medium=api_v3_business_search&utm_source=XnY__OJbDP9eLQ62PmQlPw,28.55672916385953,-81.2053115185041,3.171357638675911,851 N Alafaya Trl,Ste Q-01,,Orlando,FL,32828,"851 N Alafaya Trl, Ste Q-01, Orlando, FL 32828"
yelp,SVj6Iy_95vNTIHJjXmFEaQ,Taqueria Las Cazuelas,4.3,177,$,False,+14079307632,(407) 930-7632,https://www.yelp.com/biz/taqueria-las-cazuelas-orlando?adjust_creative=XnY__OJbDP9eLQ62PmQlPw&utm_campaign=yelp_api_v3&utm_medium=api_v3_business_search&utm_source=XnY__OJbDP9eLQ62PmQlPw,28.569146,-81.2362648,3.177017207251048,10360 E Colonial Dr,Unit 118,,Orlando,FL,32817,"10360 E Colonial Dr, Unit 118, Orlando, FL 32817"
yelp,gg49XGGHcLxeLu6VOcGzdA,Los Mondragon Mexican Restaurant,4.7,15,,False,+13213164301,(321) 316-4301,https://www.yelp.com/biz/los-mondragon-mexican-restaurant-oviedo?adjust_creative=XnY__OJbDP9eLQ62PmQlPw&utm_campaign=yelp_api_v3&utm_medium=api_v3_business_search&utm_source=XnY__OJbDP9eLQ62PmQlPw,28.62487464897273,-81.24650526791811,3.2146442160745448,2960 W State Rd 426,Ste 1000,,Oviedo,FL,32765,"2960 W State Rd 426, Ste 1000, Oviedo, FL 32765"
yelp,Gev9pvuI2imwWnU00SyQ_w,The New York Bakery Boys,4.3,69,$,False,+13217654959,(321) 765-4959,https://www.yelp.com/biz/the-new-york-bakery-boys-oviedo?adjust_creative=XnY__OJbDP9eLQ62PmQlPw&utm_campaign=yelp_api_v3&utm_medium=api_v3_business_search&utm_source=XnY__OJbDP9eLQ62PmQlPw,28.624871,-81.246517,3.2151455983595856,2960 W State Rd 426,Ste 1070,,Oviedo,FL,32765,"2960 W State Rd 426, Ste 1070, Oviedo, FL 32765"
yelp,BxiFhUmgDDYJT-BYob89lw,The Jerk Grill,4.1,33,,False,+14075427244,(407) 542-7244,https://www.yelp.com/biz/the-jerk-grill-oviedo?adjust_creative=XnY__OJbDP9eLQ62PmQlPw&utm_campaign=yelp_api_v3&utm_medium=api_v3_business_search&utm_source=XnY__OJbDP9eLQ62PmQlPw,28.64889,-81.20615,3.2330415915020922,150 Alafaya Woods Blvd,Ste 102,,Oviedo,FL,32765,"150 Alafaya Woods Blvd, Ste 102, Oviedo, FL 32765"
yelp,wxMYLgRy-fNURdLNRJLhQQ,Marlow's Tavern,4.1,474,$$,False,+14077570606,(407) 757-0606,https://www.yelp.com/biz/marlows-tavern-orlando-9?adjust_creative=XnY__OJbDP9eLQ62PmQlPw&utm_campaign=yelp_api_v3&utm_medium=api_v3_business_search&utm_source=XnY__OJbDP9eLQ62PmQlPw,28.55541592,-81.20225315,3.2489184215742126,547 N Alafaya Trl,,,Orlando,FL,32828,"547 N Alafaya Trl, Orlando, FL 32828"
yelp,TXNqNvsO0gfXYHjR6t6btA,Brooklyn Pizza Factory,5.0,1,,False,+14073777608,(407) 377-7608,https://www.yelp.com/biz/brooklyn-pizza-factory-orlando-2?adjust_creative=XnY__OJbDP9eLQ62PmQlPw&utm_campaign=yelp_api_v3&utm_medium=api_v3_business_search&utm_source=XnY__OJbDP9eLQ62PmQlPw,28.567951,-81.236842,3.261078007013204,1812 Culver Rd,,,Orlando,FL,32825,"1812 Culver Rd, Orlando, FL 32825"
yelp,OZq6qi1PbUKYL3lnPH4JCg,Jacobs Cafe Restaurant ,4.3,26,,False,+14072334080,(407) 233-4080,https://www.yelp.com/biz/jacobs-cafe-restaurant-orlando-2?adjust_creative=XnY__OJbDP9eLQ62PmQlPw&utm_campaign=yelp_api_v3&utm_medium=api_v3_business_search&utm_source=XnY__OJbDP9eLQ62PmQlPw,28.555079010481492,-81.19793473193411,3.272207405236874,12789 Waterford Lakes Pkwy,Ste 1,,Orlando,FL,32828,"12789 Waterford Lakes Pkwy, Ste 1, Orlando, FL 32828"
yelp,GZfBzqB-4rxh504gNw4BoA,Purple Ocean Superfood Bar,4.5,128,$$,False,+14079465361,(407) 946-5361,https://www.yelp.com/biz/purple-ocean-superfood-bar-orlando-3?adjust_creative=XnY__OJbDP9eLQ62PmQlPw&utm_campaign=yelp_api_v3&utm_medium=api_v3_business_search&utm_source=XnY__OJbDP9eLQ62PmQlPw,28.555075,-81.197524,3.273579481038169,12789 Waterford Lakes Pkwy,Unit 3,,Orlando,FL,32828,"12789 Waterford Lakes Pkwy, Unit 3, Orlando, FL 32828"
yelp,9X28_JRy7rnqOsfGcjwz8w,Don Julio - Waterford Lakes,4.3,653,$$,False,+14079305498,(407) 930-5498,https://www.yelp.com/biz/don-julio-waterford-lakes-orlando?adjust_creative=XnY__OJbDP9eLQ62PmQlPw&utm_campaign=yelp_api_v3&utm_medium=api_v3_business_search&utm_source=XnY__OJbDP9eLQ62PmQlPw,28.555048,-81.197578,3.2752881655469364,12789 Waterford Lakes Pkwy,Ste 13,,Orlando,FL,32828,"12789 Waterford Lakes Pkwy, Ste 13, Orlando, FL 32828"
yelp,gPv4imFDDmUZdZI6V7A8fA,Scooter's Coffee,4.2,9,,False,+18777191288,(877) 719-1288,https://www.yelp.com/biz/scooter-s-coffee-oviedo?adjust_creative=XnY__OJbDP9eLQ62PmQlPw&utm_campaign=yelp_api_v3&utm_medium=api_v3_business_search&utm_source=XnY__OJbDP9eLQ62PmQlPw,28.61917013412323,-81.2508826,3.291026004258488,3176 W State Rd 426,,,Oviedo,FL,32765,"3176 W State Rd 426, Oviedo, FL 32765"
yelp,Lghp_sRkbth4Ttg_eEaNUA,Zen Dumpling,4.6,257,$$,False,+14072379037,(407) 237-9037,https://www.yelp.com/biz/zen-dumpling-orlando?adjust_creative=XnY__OJbDP9eLQ62PmQlPw&utm_campaign=yelp_api_v3&utm_medium=api_v3_business_search&utm_source=XnY__OJbDP9eLQ62PmQlPw,28.554708,-81.200253,3.295216414786693,423 N Alafaya Trl,,,Orlando,FL,32828,"423 N Alafaya Trl, Orlando, FL 32828"
yelp,_JlTf8X3R1v3igOYthZdkQ,Cooper’s Hawk Winery & Restaurant,4.3,1214,$$,False,+14073742464,(407) 374-2464,https://www.yelp.com/biz/coopers-hawk-winery-and-restaurants-orlando-19?adjust_creative=XnY__OJbDP9eLQ62PmQlPw&utm_campaign=yelp_api_v3&utm_medium=api_v3_business_search&utm_source=XnY__OJbDP9eLQ62PmQlPw,28.554719349409872,-81.20177749622731,3.295991099063136,529 N Alafaya Trl,,,Orlando,FL,32828,"529 N Alafaya Trl, Orlando, FL 32828"
yelp,hPpb_Cgc7WPea9HO_Jj--g,Kimchi Korean Restaurant,4.3,243,$$,False,+14079774455,(407) 977-4455,https://www.yelp.com/biz/kimchi-korean-restaurant-oviedo?adjust_creative=XnY__OJbDP9eLQ62PmQlPw&utm_campaign=yelp_api_v3&utm_medium=api_v3_business_search&utm_source=XnY__OJbDP9eLQ62PmQlPw,28.649722,-81.207592,3.3010593398866557,7 Alafaya Woods Blvd,Ste 1000,,Oviedo,FL,32765,"7 Alafaya Woods Blvd, Ste 1000, Oviedo, FL 32765"
yelp,ahRdnWQ5TgbdZoB8H29kdw,Kung Fu Dumpling,4.2,111,$$,False,,,https://www.yelp.com/biz/kung-fu-dumpling-oviedo?adjust_creative=XnY__OJbDP9eLQ62PmQlPw&utm_campaign=yelp_api_v3&utm_medium=api_v3_business_search&utm_source=XnY__OJbDP9eLQ62PmQlPw,28.64975069218147,-81.20751510000044,3.302384577386062,7 Alafaya Woods Blvd,Ste 4000,,Oviedo,FL,32765,"7 Alafaya Woods Blvd, Ste 4000, Oviedo, FL 32765"
yelp,yCKq3dpZGI6NOebGOl_wAA,Top Top Hot Pot,4.0,258,$$$,False,+14079018888,(407) 901-8888,https://www.yelp.com/biz/top-top-hot-pot-orlando?adjust_creative=XnY__OJbDP9eLQ62PmQlPw&utm_campaign=yelp_api_v3&utm_medium=api_v3_business_search&utm_source=XnY__OJbDP9eLQ62PmQlPw,28.554854018119094,-81.20807424347527,3.320553680605586,504 N Alafaya Trl,Ste 119,,Orlando,FL,32828,"504 N Alafaya Trl, Ste 119, Orlando, FL 32828"
yelp,z_uwU0ZDX1ZtbjQW-7O-nA,Pho 54 & Grill Vietnamese Restaurant,4.5,165,$$,False,+14075427855,(407) 542-7855,https://www.yelp.com/biz/pho-54-and-grill-vietnamese-restaurant-oviedo-2?adjust_creative=XnY__OJbDP9eLQ62PmQlPw&utm_campaign=yelp_api_v3&utm_medium=api_v3_business_search&utm_source=XnY__OJbDP9eLQ62PmQlPw,28.650323,-81.206967,3.337252075767234,1361 Alafaya Trl,Ste 160,,Oviedo,FL,32765,"1361 Alafaya Trl, Ste 160, Oviedo, FL 32765"
yelp,ZN0yWM9ThxeMpFF-J2y5Uw,Vespr Coffeebar,4.3,556,$,False,+14074423361,(407) 442-3361,https://www.yelp.com/biz/vespr-coffeebar-orlando-3?adjust_creative=XnY__OJbDP9eLQ62PmQlPw&utm_campaign=yelp_api_v3&utm_medium=api_v3_business_search&utm_source=XnY__OJbDP9eLQ62PmQlPw,28.55436,-81.20807,3.354289508135596,626 N Alafaya Trl,Ste 105,,Orlando,FL,32828,"626 N Alafaya Trl, Ste 105, Orlando, FL 32828"
yelp,vA_D0aUfjro04ZBzrG8CWg,Sabor Colombiano,4.1,15,,False,+14072035005,(407) 203-5005,https://www.yelp.com/biz/sabor-colombiano-alafaya-2?adjust_creative=XnY__OJbDP9eLQ62PmQlPw&utm_campaign=yelp_api_v3&utm_medium=api_v3_business_search&utm_source=XnY__OJbDP9eLQ62PmQlPw,28.554154,-81.208014,3.36788862171054,504 N Alafaya Trl,Ste 106,,Alafaya,FL,32828,"504 N Alafaya Trl, Ste 106, Alafaya, FL 32828"
yelp,Cnwztcv2dbOQPhKUC2rCgQ,Jeff’s Bagel Run,4.1,80,$,False,+14075420816,(407) 542-0816,https://www.yelp.com/biz/jeff-s-bagel-run-oviedo?adjust_creative=XnY__OJbDP9eLQ62PmQlPw&utm_campaign=yelp_api_v3&utm_medium=api_v3_business_search&utm_source=XnY__OJbDP9eLQ62PmQlPw,28.651037440996276,-81.20699727436758,3.386461094712123,1351 Alafaya Trl,Ste 1013,,Oviedo,FL,32765,"1351 Alafaya Trl, Ste 1013, Oviedo, FL 32765"
yelp,lr72ma2Ft4Sq9speBCMRFg,CrunCheese,4.1,96,$,False,,,https://www.yelp.com/biz/cruncheese-orlando?adjust_creative=XnY__OJbDP9eLQ62PmQlPw&utm_campaign=yelp_api_v3&utm_medium=api_v3_business_search&utm_source=XnY__OJbDP9eLQ62PmQlPw,28.553292,-81.2031183,3.3979783856427312,465 N Alafaya Trl,Ste 465,,Orlando,FL,32828,"465 N Alafaya Trl, Ste 465, Orlando, FL 32828"
yelp,Gov4SW27iYWV9LS46kmiUA,Yummy Taste,4.5,84,$$,False,,,https://www.yelp.com/biz/yummy-taste-orlando?adjust_creative=XnY__OJbDP9eLQ62PmQlPw&utm_campaign=yelp_api_v3&utm_medium=api_v3_business_search&utm_source=XnY__OJbDP9eLQ62PmQlPw,28.5534,-81.20614,3.4053550826794337,504 N Alafaya Trl,Unit 113,,Orlando,FL,32828,"504 N Alafaya Trl, Unit 113, Orlando, FL 32828"
yelp,4NiNvw5cqvcKDlqnvGzoIQ,Yao’s,4.4,138,$$,False,+13217654801,(321) 765-4801,https://www.yelp.com/biz/yao-s-oviedo?adjust_creative=XnY__OJbDP9eLQ62PmQlPw&utm_campaign=yelp_api_v3&utm_medium=api_v3_business_search&utm_source=XnY__OJbDP9eLQ62PmQlPw,28.651819,-81.206649,3.437549989027985,15 Alafaya Woods Blvd,Ste 107,,Oviedo,FL,32765,"15 Alafaya Woods Blvd, Ste 107, Oviedo, FL 32765"
yelp,Z9Qz1DaPMvPaqMVK09ZYqg,Arcade Monsters,4.6,296,$$,False,+14075424499,(407) 542-4499,https://www.yelp.com/biz/arcade-monsters-oviedo?adjust_creative=XnY__OJbDP9eLQ62PmQlPw&utm_campaign=yelp_api_v3&utm_medium=api_v3_business_search&utm_source=XnY__OJbDP9eLQ62PmQlPw,28.651819,-81.206649,3.437549989027985,15 Alafaya Woods Blvd,Ste 117,,Oviedo,FL,32765,"15 Alafaya Woods Blvd, Ste 117, Oviedo, FL 32765"
yelp,I-lYkCL-QYq3MduXIqwSDA,La Pinchera,5.0,1,,False,+12405328172,(240) 532-8172,https://www.yelp.com/biz/la-pinchera-orlando?adjust_creative=XnY__OJbDP9eLQ62PmQlPw&utm_campaign=yelp_api_v3&utm_medium=api_v3_business_search&utm_source=XnY__OJbDP9eLQ62PmQlPw,28.5697631843747,-81.24318567275436,3.452276090601507,10043 E Colonial Dr,,,Orlando,FL,32817,"10043 E Colonial Dr, Orlando, FL 32817"
yelp,RlBx_YEnsFYnwJ7_S9VG3A,Las Patronas,4.4,5,,False,+13213520636,(321) 352-0636,https://www.yelp.com/biz/las-patronas-orlando?adjust_creative=XnY__OJbDP9eLQ62PmQlPw&utm_campaign=yelp_api_v3&utm_medium=api_v3_business_search&utm_source=XnY__OJbDP9eLQ62PmQlPw,28.61929529842884,-81.25382797474397,3.4617199160276155,3220 West State Rd 426,,,Orlando,FL,32765,"3220 West State Rd 426, Orlando, FL 32765"
yelp,p31x-FIvjCM8Br2MyQ9tlQ,Craft & Common,4.6,43,,False,+13217657002,(321) 765-7002,https://www.yelp.com/biz/craft-and-common-oviedo-2?adjust_creative=XnY__OJbDP9eLQ62PmQlPw&utm_campaign=yelp_api_v3&utm_medium=api_v3_business_search&utm_source=XnY__OJbDP9eLQ62PmQlPw,28.653221430608188,-81.20765885276117,3.541223563514085,20 Alexandria Blvd,Ste 1400,,Oviedo,FL,32765,"20 Alexandria Blvd, Ste 1400, Oviedo, FL 32765"
yelp,h3fkLmaNNjeqFXIt80DeKA,Mister O1 Extraordinary Pizza Oviedo,4.4,74,$$,False,+13214616170,(321) 461-6170,https://www.yelp.com/biz/mister-o1-extraordinary-pizza-oviedo-oviedo-8?adjust_creative=XnY__OJbDP9eLQ62PmQlPw&utm_campaign=yelp_api_v3&utm_medium=api_v3_business_search&utm_source=XnY__OJbDP9eLQ62PmQlPw,28.65324,-81.20777,3.5433743828342066,10 Alexandria Blvd,Ste 5,,Oviedo,FL,32765,"10 Alexandria Blvd, Ste 5, Oviedo, FL 32765"
yelp,p8ArY2BBZB2TppW2qYG75Q,Grain and Berry - Oviedo,4.6,20,,False,+14075420243,(407) 542-0243,https://www.yelp.com/biz/grain-and-berry-oviedo?adjust_creative=XnY__OJbDP9eLQ62PmQlPw&utm_campaign=yelp_api_v3&utm_medium=api_v3_business_search&utm_source=XnY__OJbDP9eLQ62PmQlPw,28.65439,-81.20997998611894,3.641797163484225,1121 Alafaya Trl,Ste 1027,,Oviedo,FL,32765,"1121 Alafaya Trl, Ste 1027, Oviedo, FL 32765"
yelp,OK_--wLgyXwF4Btv04cZ0A,Bestea,4.6,58,$$,False,+13217657128,(321) 765-7128,https://www.yelp.com/biz/bestea-oviedo?adjust_creative=XnY__OJbDP9eLQ62PmQlPw&utm_campaign=yelp_api_v3&utm_medium=api_v3_business_search&utm_source=XnY__OJbDP9eLQ62PmQlPw,28.65464672135751,-81.20993834725034,3.658881589524866,1121 Alafaya Trail,Ste 1013,,Oviedo,FL,32765,"1121 Alafaya Trail, Ste 1013, Oviedo, FL 32765"
yelp,5xCfAa3mPxWQQurvAURKJA,Bolay - Oviedo,4.4,126,$,False,+14077067077,(407) 706-7077,https://www.yelp.com/biz/bolay-oviedo-oviedo-3?adjust_creative=XnY__OJbDP9eLQ62PmQlPw&utm_campaign=yelp_api_v3&utm_medium=api_v3_business_search&utm_source=XnY__OJbDP9eLQ62PmQlPw,28.65483457,-81.20879523,3.661060937600919,1079 Alafaya Trl,Ste 1203,,Oviedo,FL,32765,"1079 Alafaya Trl, Ste 1203, Oviedo, FL 32765"
yelp,PlUIgHH2yHX7rxmNQPLz4A,JINYA Ramen Bar - Oviedo,4.4,153,$$,False,+13217657077,(321) 765-7077,https://www.yelp.com/biz/jinya-ramen-bar-oviedo-2?adjust_creative=XnY__OJbDP9eLQ62PmQlPw&utm_campaign=yelp_api_v3&utm_medium=api_v3_business_search&utm_source=XnY__OJbDP9eLQ62PmQlPw,28.65543,-81.20448,3.67364005979508,234 E Mitchell Hammock Rd,Ste 1160,,Oviedo,FL,32765,"234 E Mitchell Hammock Rd, Ste 1160, Oviedo, FL 32765"
yelp,Ag89Kt5lObftTZG7yPCMsQ,Maple Street Biscuit Company - Oviedo,4.5,476,$$,False,+14076043015,(407) 604-3015,https://www.yelp.com/biz/maple-street-biscuit-company-oviedo-oviedo-2?adjust_creative=XnY__OJbDP9eLQ62PmQlPw&utm_campaign=yelp_api_v3&utm_medium=api_v3_business_search&utm_source=XnY__OJbDP9eLQ62PmQlPw,28.6562052,-81.2026236,3.7207342033061557,978 City Walk Ln,,,Oviedo,FL,32765,"978 City Walk Ln, Oviedo, FL 32765"
yelp,hWRlOOzFvUpGGgcsld6RrQ,Big Dave's Cheesesteaks,4.4,35,,False,,,https://www.yelp.com/biz/big-daves-cheesesteaks-oviedo-2?adjust_creative=XnY__OJbDP9eLQ62PmQlPw&utm_campaign=yelp_api_v3&utm_medium=api_v3_business_search&utm_source=XnY__OJbDP9eLQ62PmQlPw,28.656338669127965,-81.20127130381506,3.7274839825010533,441 E Mitchell Hammock Rd,Ste 1119,,Oviedo,FL,32765,"441 E Mitchell Hammock Rd, Ste 1119, Oviedo, FL 32765"
yelp,zjhDUTxDRj2j9GYIm3ppmQ,Press Waffle Co,4.7,3,,False,,,https://www.yelp.com/biz/press-waffle-co-oviedo-2?adjust_creative=XnY__OJbDP9eLQ62PmQlPw&utm_campaign=yelp_api_v3&utm_medium=api_v3_business_search&utm_source=XnY__OJbDP9eLQ62PmQlPw,28.65632603,-81.20242182,3.728593527790249,1048 City Walk Ln,,,Oviedo,FL,32765,"1048 City Walk Ln, Oviedo, FL 32765"
yelp,T-vYQeuy8toLTDS8g8IHsg,Sushi Pop,4.4,839,$$,False,+14075425975,(407) 542-5975,https://www.yelp.com/biz/sushi-pop-oviedo?adjust_creative=XnY__OJbDP9eLQ62PmQlPw&utm_campaign=yelp_api_v3&utm_medium=api_v3_business_search&utm_source=XnY__OJbDP9eLQ62PmQlPw,28.65505978980664,-81.21364239579131,3.7299876352205223,310 W Mitchell Hammock Rd,Ste 900,,Oviedo,FL,32765,"310 W Mitchell Hammock Rd, Ste 900, Oviedo, FL 32765"
yelp,pvwGB6dvjR_kqSbsrVTzhQ,Ford's Garage Oviedo,4.1,215,$$,False,+14072133673,(407) 213-3673,https://www.yelp.com/biz/fords-garage-oviedo?adjust_creative=XnY__OJbDP9eLQ62PmQlPw&utm_campaign=yelp_api_v3&utm_medium=api_v3_business_search&utm_source=XnY__OJbDP9eLQ62PmQlPw,28.6564,-81.20083,3.731307272156195,459 E Mitchell Hammock Rd,,,Oviedo,FL,32765,"459 E Mitchell Hammock Rd, Oviedo, FL 32765"
yelp,WCVjKoBLW-g7NJqkXOD1hw,Arepa Burger - Waterford Lakes,4.1,37,,False,+14078450033,(407) 845-0033,https://www.yelp.com/biz/arepa-burger-waterford-lakes-orlando?adjust_creative=XnY__OJbDP9eLQ62PmQlPw&utm_campaign=yelp_api_v3&utm_medium=api_v3_business_search&utm_source=XnY__OJbDP9eLQ62PmQlPw,28.548596395437347,-81.19418819549578,3.7347414240445707,857 Woodbury Rd,Ste 105,,Orlando,FL,32828,"857 Woodbury Rd, Ste 105, Orlando, FL 32828"
yelp,yHKpTbspgKBlCVaknfus8g,Just Salad,4.0,13,,False,+12122441111,(212) 244-1111,https://www.yelp.com/biz/just-salad-oviedo?adjust_creative=XnY__OJbDP9eLQ62PmQlPw&utm_campaign=yelp_api_v3&utm_medium=api_v3_business_search&utm_source=XnY__OJbDP9eLQ62PmQlPw,28.65615,-81.20872,3.750384431219092,25 W Mitchell Hammock Rd,Suite 1101,,Oviedo,FL,32765,"25 W Mitchell Hammock Rd, Suite 1101, Oviedo, FL 32765"
yelp,2yiqy-J6ESBZTvTU-qg6Jg,Casa Mexico Restaurant,4.4,43,,False,+13212475811,(321) 247-5811,https://www.yelp.com/biz/casa-mexico-restaurant-no-title?adjust_creative=XnY__OJbDP9eLQ62PmQlPw&utm_campaign=yelp_api_v3&utm_medium=api_v3_business_search&utm_source=XnY__OJbDP9eLQ62PmQlPw,28.568310648471503,-81.24822139999999,3.7512218085028732,9728 E Colonial Dr,,,Orlando,FL,32817,"9728 E Colonial Dr, Orlando, FL 32817"
yelp,Nx1dEXXY3EfIGiyhCCjQuA,The Crazy Cork Wine Bar,4.8,27,,False,+14074739902,(407) 473-9902,https://www.yelp.com/biz/the-crazy-cork-wine-bar-oviedo?adjust_creative=XnY__OJbDP9eLQ62PmQlPw&utm_campaign=yelp_api_v3&utm_medium=api_v3_business_search&utm_source=XnY__OJbDP9eLQ62PmQlPw,28.65688,-81.20433,3.7729406661521554,940 City Plaza Way,Ste 126,,Oviedo,FL,32765,"940 City Plaza Way, Ste 126, Oviedo, FL 32765"
yelp,kl8nZOIEifhrbVP-6GG5uQ,Rethink Food + Drink Oviedo,4.4,16,,False,+14075420517,(407) 542-0517,https://www.yelp.com/biz/rethink-food-drink-oviedo-oviedo-2?adjust_creative=XnY__OJbDP9eLQ62PmQlPw&utm_campaign=yelp_api_v3&utm_medium=api_v3_business_search&utm_source=XnY__OJbDP9eLQ62PmQlPw,28.65693704089397,-81.20399759767069,3.7755570529217763,945 City Plaza Way,Ste 1071,,Oviedo,FL,32765,"945 City Plaza Way, Ste 1071, Oviedo, FL 32765"
yelp,f9aUKLm2hMd33c-794E-EA,Grilled Cheezus,4.9,7,,False,,,https://www.yelp.com/biz/grilled-cheezus-oviedo?adjust_creative=XnY__OJbDP9eLQ62PmQlPw&utm_campaign=yelp_api_v3&utm_medium=api_v3_business_search&utm_source=XnY__OJbDP9eLQ62PmQlPw,28.65715216707142,-81.20314924982593,3.7875315026088585,888 City Walk Ln,Ste 1024,,Oviedo,FL,32765,"888 City Walk Ln, Ste 1024, Oviedo, FL 32765"
yelp,p_acXZANMscvg4lycU9QrA,The Food Factory,4.1,56,,False,+14076044600,(407) 604-4600,https://www.yelp.com/biz/the-food-factory-oviedo-2?adjust_creative=XnY__OJbDP9eLQ62PmQlPw&utm_campaign=yelp_api_v3&utm_medium=api_v3_business_search&utm_source=XnY__OJbDP9eLQ62PmQlPw,28.657185,-81.202995,3.789352397734635,888 City Walk Ln,,,Oviedo,FL,32765,"888 City Walk Ln, Oviedo, FL 32765"
yelp,T6zndpRoskQjjc0mREqyhw,Kai Asian Street Fare,4.0,18,,False,+14075421833,(407) 542-1833,https://www.yelp.com/biz/kai-asian-street-fare-oviedo?adjust_creative=XnY__OJbDP9eLQ62PmQlPw&utm_campaign=yelp_api_v3&utm_medium=api_v3_business_search&utm_source=XnY__OJbDP9eLQ62PmQlPw,28.657185,-81.202995,3.789352397734635,888 City Walk Ln,,,Oviedo,FL,32765,"888 City Walk Ln, Oviedo, FL 32765"
yelp,xN1f9qxnPZjn8lgpW-qUmQ,Dolce Creperie,4.5,6,,False,+14075425716,(407) 542-5716,https://www.yelp.com/biz/dolce-creperie-oviedo?adjust_creative=XnY__OJbDP9eLQ62PmQlPw&utm_campaign=yelp_api_v3&utm_medium=api_v3_business_search&utm_source=XnY__OJbDP9eLQ62PmQlPw,28.657287,-81.20388,3.7992527798363454,945 City Plaza Way,Ste 1011,,Oviedo,FL,32765,"945 City Plaza Way, Ste 1011, Oviedo, FL 32765"
yelp,EN0BxgIktRfXpECqKXgczw,Pokeworks,4.4,174,$$,False,+14077962148,(407) 796-2148,https://www.yelp.com/biz/pokeworks-oviedo-2?adjust_creative=XnY__OJbDP9eLQ62PmQlPw&utm_campaign=yelp_api_v3&utm_medium=api_v3_business_search&utm_source=XnY__OJbDP9eLQ62PmQlPw,28.656827168943277,-81.20920537620138,3.8008857844550628,45 W Mitchell Hammock Rd,Ste 1371,,Oviedo,FL,32765,"45 W Mitchell Hammock Rd, Ste 1371, Oviedo, FL 32765"
yelp,tR8rTk10oYroLjP6yn_7ww,Buttercrust Pizza - Oviedo,4.3,33,,False,+14075420820,(407) 542-0820,https://www.yelp.com/biz/buttercrust-pizza-oviedo-oviedo?adjust_creative=XnY__OJbDP9eLQ62PmQlPw&utm_campaign=yelp_api_v3&utm_medium=api_v3_business_search&utm_source=XnY__OJbDP9eLQ62PmQlPw,28.65735,-81.20306,3.8009247314053236,888 City Walk Ln,Ste 1018,,Oviedo,FL,32765,"888 City Walk Ln, Ste 1018, Oviedo, FL 32765"
yelp,6AlfW9j93S-a3Oucudrv9w,Tacos My Guey,4.5,12,,False,+13217654116,(321) 765-4116,https://www.yelp.com/biz/tacos-my-guey-oviedo?adjust_creative=XnY__OJbDP9eLQ62PmQlPw&utm_campaign=yelp_api_v3&utm_medium=api_v3_business_search&utm_source=XnY__OJbDP9eLQ62PmQlPw,28.65736332317647,-81.20307944110449,3.8019000995420487,888 City Walk Ln,Ste 1006,,Oviedo,FL,32765,"888 City Walk Ln, Ste 1006, Oviedo, FL 32765"
yelp,ITQcPK3XV4rfnH6htrhf9A,The Local Hen,4.6,56,,False,+14075420647,(407) 542-0647,https://www.yelp.com/biz/the-local-hen-oviedo?adjust_creative=XnY__OJbDP9eLQ62PmQlPw&utm_campaign=yelp_api_v3&utm_medium=api_v3_business_search&utm_source=XnY__OJbDP9eLQ62PmQlPw,28.65739516958639,-81.2030208549806,3.8039308835725416,888 City Walk Ln,Ste 1012,,Oviedo,FL,32765,"888 City Walk Ln, Ste 1012, Oviedo, FL 32765"
yelp,kF2P7nTYvbmEijtLvXCeQA,CAVA,4.3,32,,False,+13214138061,(321) 413-8061,https://www.yelp.com/biz/cava-oviedo?adjust_creative=XnY__OJbDP9eLQ62PmQlPw&utm_campaign=yelp_api_v3&utm_medium=api_v3_business_search&utm_source=XnY__OJbDP9eLQ62PmQlPw,28.65694010605731,-81.20875096321105,3.8047084327265774,45 W Mitchell Hammock Rd,,,Oviedo,FL,32765,"45 W Mitchell Hammock Rd, Oviedo, FL 32765"
yelp,DOYf0mdhAJjZHYfLQPDoCQ,TJ's Seafood Shack,4.4,287,$$,False,+14073653365,(407) 365-3365,https://www.yelp.com/biz/tjs-seafood-shack-oviedo?adjust_creative=XnY__OJbDP9eLQ62PmQlPw&utm_campaign=yelp_api_v3&utm_medium=api_v3_business_search&utm_source=XnY__OJbDP9eLQ62PmQlPw,28.6573075789776,-81.2060434501771,3.8108367737745885,197 E Mitchell Hammock Rd,,,Oviedo,FL,32765,"197 E Mitchell Hammock Rd, Oviedo, FL 32765"
yelp,dXJnq-gyKI1avei_Mg3OIg,Big Taco,4.5,26,,False,+14079663430,(407) 966-3430,https://www.yelp.com/biz/big-taco-oviedo?adjust_creative=XnY__OJbDP9eLQ62PmQlPw&utm_campaign=yelp_api_v3&utm_medium=api_v3_business_search&utm_source=XnY__OJbDP9eLQ62PmQlPw,28.657331,-81.206006,3.8122337000914492,195 E Mitchell Hammock Rd,,,Oviedo,FL,32765,"195 E Mitchell Hammock Rd, Oviedo, FL 32765"
yelp,GsYDuDZtNoxXJral_j2Sfg,Tabla Indian Restaurant Oviedo,4.2,184,$$,False,+13219668069,(321) 966-8069,https://www.yelp.com/biz/tabla-indian-restaurant-oviedo-oviedo-2?adjust_creative=XnY__OJbDP9eLQ62PmQlPw&utm_campaign=yelp_api_v3&utm_medium=api_v3_business_search&utm_source=XnY__OJbDP9eLQ62PmQlPw,28.65756792161658,-81.20398895400201,3.819029772700003,945 City Plaza Way,Ste 1001,,Oviedo,FL,32765,"945 City Plaza Way, Ste 1001, Oviedo, FL 32765"
yelp,gIDRjQIutDCoVUET5Dzt0A,Mission BBQ,4.5,391,$$,False,+14074793386,(407) 479-3386,https://www.yelp.com/biz/mission-bbq-oviedo?adjust_creative=XnY__OJbDP9eLQ62PmQlPw&utm_campaign=yelp_api_v3&utm_medium=api_v3_business_search&utm_source=XnY__OJbDP9eLQ62PmQlPw,28.65448,-81.22369,3.8723549642696216,968 W Mitchell Hammock Rd,,,Oviedo,FL,32765,"968 W Mitchell Hammock Rd, Oviedo, FL 32765"
yelp,oTBEIzQDE_BYxZtZbTBE8g,Chicken Salad Chick,4.2,68,,False,+14076043625,(407) 604-3625,https://www.yelp.com/biz/chicken-salad-chick-oviedo-3?adjust_creative=XnY__OJbDP9eLQ62PmQlPw&utm_campaign=yelp_api_v3&utm_medium=api_v3_business_search&utm_source=XnY__OJbDP9eLQ62PmQlPw,28.65480875522826,-81.223128,3.881076580123889,946 W Mitchell Hammock Rd,Ste 1210,,Oviedo,FL,32765,"946 W Mitchell Hammock Rd, Ste 1210, Oviedo, FL 32765"
yelp,wUfpCPXpwVz8q4NP3FEpvQ,Metro Diner,4.3,194,$$,False,+14076985290,(407) 698-5290,https://www.yelp.com/biz/metro-diner-oviedo?adjust_creative=XnY__OJbDP9eLQ62PmQlPw&utm_campaign=yelp_api_v3&utm_medium=api_v3_business_search&utm_source=XnY__OJbDP9eLQ62PmQlPw,28.65482,-81.22316,3.8825000844999824,946 W Mitchell Hammock Rd,Ste 1220,,Oviedo,FL,32765,"946 W Mitchell Hammock Rd, Ste 1220, Oviedo, FL 32765"
yelp,36dd_FrCgkgd4gBem8CI3Q,Wingstop,4.4,5,,False,+18447711994,(844) 771-1994,https://www.yelp.com/biz/wingstop-oviedo-2?adjust_creative=XnY__OJbDP9eLQ62PmQlPw&utm_campaign=yelp_api_v3&utm_medium=api_v3_business_search&utm_source=XnY__OJbDP9eLQ62PmQlPw,28.6548207,-81.22447113315258,3.9118902288239674,976 W Mitchell Hammock Rd,,,Oviedo,FL,32765,"976 W Mitchell Hammock Rd, Oviedo, FL 32765"
yelp,hs6O7kGqzQ4_t4pGUaZ5kw,Alma Argentina,4.7,114,$$,False,+13214220356,(321) 422-0356,https://www.yelp.com/biz/alma-argentina-oviedo-2?adjust_creative=XnY__OJbDP9eLQ62PmQlPw&utm_campaign=yelp_api_v3&utm_medium=api_v3_business_search&utm_source=XnY__OJbDP9eLQ62PmQlPw,28.61832,-81.26212,3.91945281036639,3607 Aloma Ave,Unit 1071,,Oviedo,FL,32765,"3607 Aloma Ave, Unit 1071, Oviedo, FL 32765"
yelp,mVWa_B0sZPnbKUV2YrU5qg,Peruvian Chicken,4.6,11,,False,+13212034870,(321) 203-4870,https://www.yelp.com/biz/peruvian-chicken-oviedo?adjust_creative=XnY__OJbDP9eLQ62PmQlPw&utm_campaign=yelp_api_v3&utm_medium=api_v3_business_search&utm_source=XnY__OJbDP9eLQ62PmQlPw,28.617402,-81.262509,3.9248959600152453,5420 Deep Lake Rd,,,Oviedo,FL,32765,"5420 Deep Lake Rd, Oviedo, FL 32765"
yelp,4ZSeYOjAav_clggCJnMf0Q,Mecatos Bakery & Café,4.1,407,$$,False,+14076013961,(407) 601-3961,https://www.yelp.com/biz/mecatos-bakery-and-caf%C3%A9-orlando-16?adjust_creative=XnY__OJbDP9eLQ62PmQlPw&utm_campaign=yelp_api_v3&utm_medium=api_v3_business_search&utm_source=XnY__OJbDP9eLQ62PmQlPw,28.5454152,-81.2022602,3.939455899774154,12400 Lake Underhill Rd,Unit 103,,Orlando,FL,32828,"12400 Lake Underhill Rd, Unit 103, Orlando, FL 32828"
yelp,u8323fYN3b4ZJXOILZx54Q,Cavallari Gourmet,4.4,173,$$,False,+14073658000,(407) 365-8000,https://www.yelp.com/biz/cavallari-gourmet-oviedo?adjust_creative=XnY__OJbDP9eLQ62PmQlPw&utm_campaign=yelp_api_v3&utm_medium=api_v3_business_search&utm_source=XnY__OJbDP9eLQ62PmQlPw,28.653634,-81.22892,3.947917626729138,1954 W State Rd 426,Ste 1172,,Oviedo,FL,32765,"1954 W State Rd 426, Ste 1172, Oviedo, FL 32765"
yelp,J-O-ZWpIQxQf9usgGCMzwg,Saigon Flavors,4.2,216,$$,False,+14079518818,(407) 951-8818,https://www.yelp.com/biz/saigon-flavors-oviedo?adjust_creative=XnY__OJbDP9eLQ62PmQlPw&utm_campaign=yelp_api_v3&utm_medium=api_v3_business_search&utm_source=XnY__OJbDP9eLQ62PmQlPw,28.6181685827672,-81.2626826763153,3.9493266694689972,3573 Aloma Ave,,,Oviedo,FL,32765,"3573 Aloma Ave, Oviedo, FL 32765"
yelp,f21a6esKPqzgup8k43XLkA,Poblanos Mexican Grill,4.3,46,,False,+13214446477,(321) 444-6477,https://www.yelp.com/biz/poblanos-mexican-grill-oviedo-4?adjust_creative=XnY__OJbDP9eLQ62PmQlPw&utm_campaign=yelp_api_v3&utm_medium=api_v3_business_search&utm_source=XnY__OJbDP9eLQ62PmQlPw,28.618048193790123,-81.26291924603296,3.9608448350535963,5414 Deep Lake Rd,Ste 1152,,Oviedo,FL,32765,"5414 Deep Lake Rd, Ste 1152, Oviedo, FL 32765"
yelp,JVxIyG6pnV5vvqtnM8W5SQ,Lemongrass Thai Kitchen,4.6,132,$$,False,+14075420658,(407) 542-0658,https://www.yelp.com/biz/lemongrass-thai-kitchen-oviedo?adjust_creative=XnY__OJbDP9eLQ62PmQlPw&utm_campaign=yelp_api_v3&utm_medium=api_v3_business_search&utm_source=XnY__OJbDP9eLQ62PmQlPw,28.657936979563644,-81.17995194965857,4.027085413863926,1016 Lockwood Blvd,Ste 170,,Oviedo,FL,32765,"1016 Lockwood Blvd, Ste 170, Oviedo, FL 32765"
yelp,PmIaEMIHUeL3vYMqYmMaHg,Hinode,4.5,214,$$,False,+14075421686,(407) 542-1686,https://www.yelp.com/biz/hinode-oviedo?adjust_creative=XnY__OJbDP9eLQ62PmQlPw&utm_campaign=yelp_api_v3&utm_medium=api_v3_business_search&utm_source=XnY__OJbDP9eLQ62PmQlPw,28.65827,-81.1799,4.049967500695462,1016 Lockwood Blvd,Ste 160,,Oviedo,FL,32765,"1016 Lockwood Blvd, Ste 160, Oviedo, FL 32765"
yelp,JwBkHjtVQ27MW4SBCdfKkg,Bernie's Gourmet To Go,4.7,84,$,False,+14079770010,(407) 977-0010,https://www.yelp.com/biz/bernies-gourmet-to-go-oviedo?adjust_creative=XnY__OJbDP9eLQ62PmQlPw&utm_campaign=yelp_api_v3&utm_medium=api_v3_business_search&utm_source=XnY__OJbDP9eLQ62PmQlPw,28.6575335195335,-81.1764754246063,4.069883310365086,1875 W County Rd 419,,,Oviedo,FL,32765,"1875 W County Rd 419, Oviedo, FL 32765"
yelp,4mliCHzBpAP4CSNplEQQGw,DoughBoyz Pizza,4.2,237,$$,False,+14076778900,(407) 677-8900,https://www.yelp.com/biz/doughboyz-pizza-oviedo?adjust_creative=XnY__OJbDP9eLQ62PmQlPw&utm_campaign=yelp_api_v3&utm_medium=api_v3_business_search&utm_source=XnY__OJbDP9eLQ62PmQlPw,28.617953321646848,-81.2648459959923,4.071668840901747,3635 Aloma Ave,Ste 1009,,Oviedo,FL,32765,"3635 Aloma Ave, Ste 1009, Oviedo, FL 32765"
yelp,mAOcJjJwMfQn9UlsYvsPnQ,Koi Sushi,4.5,115,$$,False,+14079606515,(407) 960-6515,https://www.yelp.com/biz/koi-sushi-oviedo?adjust_creative=XnY__OJbDP9eLQ62PmQlPw&utm_campaign=yelp_api_v3&utm_medium=api_v3_business_search&utm_source=XnY__OJbDP9eLQ62PmQlPw,28.617953,-81.264993,4.080264317739348,3635 Aloma Ave,Ste 1033,,Oviedo,FL,32765,"3635 Aloma Ave, Ste 1033, Oviedo, FL 32765"
yelp,wegGvfCmN8laX94wT830_A,Ramen Takagi,4.5,193,$$,False,+13219728602,(321) 972-8602,https://www.yelp.com/biz/ramen-takagi-oviedo?adjust_creative=XnY__OJbDP9eLQ62PmQlPw&utm_campaign=yelp_api_v3&utm_medium=api_v3_business_search&utm_source=XnY__OJbDP9eLQ62PmQlPw,28.61805674157055,-81.26498298613642,4.081570391721617,3635 Aloma Ave,Ste 1017,,Oviedo,FL,32765,"3635 Aloma Ave, Ste 1017, Oviedo, FL 32765"
yelp,tB2LegQ7Fa5dcLnlanNNKw,The Mediterranean Spot Deli & Gyros,4.6,153,$,False,+14078646702,(407) 864-6702,https://www.yelp.com/biz/the-mediterranean-spot-deli-and-gyros-orlando?adjust_creative=XnY__OJbDP9eLQ62PmQlPw&utm_campaign=yelp_api_v3&utm_medium=api_v3_business_search&utm_source=XnY__OJbDP9eLQ62PmQlPw,28.568071,-81.255757,4.126576300336341,9430 E Colonial Dr,,,Orlando,FL,32817,"9430 E Colonial Dr, Orlando, FL 32817"
yelp,bPVizrhzuZFhDAc-IFygpQ,Marita's Latin Bites,4.4,58,$,False,+14072862236,(407) 286-2236,https://www.yelp.com/biz/maritas-latin-bites-orlando-2?adjust_creative=XnY__OJbDP9eLQ62PmQlPw&utm_campaign=yelp_api_v3&utm_medium=api_v3_business_search&utm_source=XnY__OJbDP9eLQ62PmQlPw,28.567807,-81.256243,4.161193498310386,9446 E Colonial Dr,,,Orlando,FL,32817,"9446 E Colonial Dr, Orlando, FL 32817"
yelp,mlGafWdmtJHk3F8gJoFJiw,La Fortuna Mexican Market,5.0,21,,False,+13217654580,(321) 765-4580,https://www.yelp.com/biz/la-fortuna-mexican-market-oviedo-2?adjust_creative=XnY__OJbDP9eLQ62PmQlPw&utm_campaign=yelp_api_v3&utm_medium=api_v3_business_search&utm_source=XnY__OJbDP9eLQ62PmQlPw,28.65145952590967,-81.15747961443141,4.262774693356904,1949 W County Rd 419,Ste 1201,,Oviedo,FL,32766,"1949 W County Rd 419, Ste 1201, Oviedo, FL 32766"
yelp,JknOiCoRXg0ETfit7HPu7Q,La Chama To Go,5.0,2,,False,+17869731530,(786) 973-1530,https://www.yelp.com/biz/la-chama-to-go-orlando?adjust_creative=XnY__OJbDP9eLQ62PmQlPw&utm_campaign=yelp_api_v3&utm_medium=api_v3_business_search&utm_source=XnY__OJbDP9eLQ62PmQlPw,28.567395996579418,-81.25845534233319,4.28772366330259,9318 E Colonial Dr,Ste A-7,,Orlando,FL,32817,"9318 E Colonial Dr, Ste A-7, Orlando, FL 32817"
yelp,mBUl13DWXTJuojdvByMhOw,The Earthy Kitchen,4.1,74,,False,+14076016841,(407) 601-6841,https://www.yelp.com/biz/the-earthy-kitchen-orlando?adjust_creative=XnY__OJbDP9eLQ62PmQlPw&utm_campaign=yelp_api_v3&utm_medium=api_v3_business_search&utm_source=XnY__OJbDP9eLQ62PmQlPw,28.5672198770093,-81.2584652379155,4.295096750261362,9318 E Colonial Dr,Ste A-9,,Orlando,FL,32817,"9318 E Colonial Dr, Ste A-9, Orlando, FL 32817"
yelp,Lr0p83oJ9vwqkrmIijFRXQ,Sushi 99,4.1,254,$$,False,+13218045868,(321) 804-5868,https://www.yelp.com/biz/sushi-99-orlando?adjust_creative=XnY__OJbDP9eLQ62PmQlPw&utm_campaign=yelp_api_v3&utm_medium=api_v3_business_search&utm_source=XnY__OJbDP9eLQ62PmQlPw,28.5486997524055,-81.1643642932177,4.297469856890892,1024 Avalon Park Blvd,,,Orlando,FL,32828,"1024 Avalon Park Blvd, Orlando, FL 32828"
yelp,qPwCNLNSLD2E0MS5NDeUwQ,Smokey Jay's BBQ,4.8,38,,False,+14076681703,(407) 668-1703,https://www.yelp.com/biz/smokey-jays-bbq-orlando?adjust_creative=XnY__OJbDP9eLQ62PmQlPw&utm_campaign=yelp_api_v3&utm_medium=api_v3_business_search&utm_source=XnY__OJbDP9eLQ62PmQlPw,28.5672,-81.25865,4.305119393898131,9318 E Colonial Dr,Ste A-9,,Orlando,FL,32817,"9318 E Colonial Dr, Ste A-9, Orlando, FL 32817"
yelp,-vD0CxKDZ2ux34GsS1P9eQ,Chimiking Restaurant - Alafaya,4.2,62,,False,+14076014423,(407) 601-4423,https://www.yelp.com/biz/chimiking-restaurant-alafaya-orlando?adjust_creative=XnY__OJbDP9eLQ62PmQlPw&utm_campaign=yelp_api_v3&utm_medium=api_v3_business_search&utm_source=XnY__OJbDP9eLQ62PmQlPw,28.540443,-81.207849,4.30656707966285,422 S Alafaya Trl,Ste 20,,Orlando,FL,32828,"422 S Alafaya Trl, Ste 20, Orlando, FL 32828"
yelp,0mjo-giJPlOiJTBSvKaxCw,Que Chidos Tacos,5.0,15,,False,+14074509509,(407) 450-9509,https://www.yelp.com/biz/que-chidos-tacos-orlando?adjust_creative=XnY__OJbDP9eLQ62PmQlPw&utm_campaign=yelp_api_v3&utm_medium=api_v3_business_search&utm_source=XnY__OJbDP9eLQ62PmQlPw,28.569193920546052,-81.2605074,4.323885793201599,9205 E Colonial Dr,,,Orlando,FL,32817,"9205 E Colonial Dr, Orlando, FL 32817"
yelp,QEXYxYcv3sly1BUgyWflPA,Oviedo City Cafe,4.5,16,,False,+16892302318,(689) 230-2318,https://www.yelp.com/biz/oviedo-city-cafe-oviedo?adjust_creative=XnY__OJbDP9eLQ62PmQlPw&utm_campaign=yelp_api_v3&utm_medium=api_v3_business_search&utm_source=XnY__OJbDP9eLQ62PmQlPw,28.664881400257578,-81.2249092,4.57170814228152,1333 W Broadway St,,,Oviedo,FL,32765,"1333 W Broadway St, Oviedo, FL 32765"
yelp,XN06Vl1v6XEfecypFSf97Q,The Pinball Lounge,4.9,26,$,False,+14074952875,(407) 495-2875,https://www.yelp.com/biz/the-pinball-lounge-oviedo?adjust_creative=XnY__OJbDP9eLQ62PmQlPw&utm_campaign=yelp_api_v3&utm_medium=api_v3_business_search&utm_source=XnY__OJbDP9eLQ62PmQlPw,28.6696186065674,-81.2015914916992,4.645243974059726,376 E Broadway St,,,Oviedo,FL,32765,"376 E Broadway St, Oviedo, FL 32765"
yelp,RaF7ltqIfkQ-vqct7sZNeg,Hangry Tacos,5.0,2,,False,,,https://www.yelp.com/biz/hangry-tacos-oviedo?adjust_creative=XnY__OJbDP9eLQ62PmQlPw&utm_campaign=yelp_api_v3&utm_medium=api_v3_business_search&utm_source=XnY__OJbDP9eLQ62PmQlPw,28.662808865145205,-81.23471899999775,4.67211867542321,1700 Oviedo Mall Blvd,,,Oviedo,FL,32765,"1700 Oviedo Mall Blvd, Oviedo, FL 32765"
yelp,aCvgaAOxslD6OTcwfxVLPA,My Turkish Table,4.8,37,,False,+14075423071,(407) 542-3071,https://www.yelp.com/biz/my-turkish-table-oviedo?adjust_creative=XnY__OJbDP9eLQ62PmQlPw&utm_campaign=yelp_api_v3&utm_medium=api_v3_business_search&utm_source=XnY__OJbDP9eLQ62PmQlPw,28.6628071,-81.23479570000188,4.6741017491619585,1600 Oviedo Mall Blvd,,,Oviedo,FL,32765,"1600 Oviedo Mall Blvd, Oviedo, FL 32765"
yelp,d_iZzYJ0ujaMDlcs1jBZTA,Mediterranean Gourmet,4.2,47,$,False,+14079711997,(407) 971-1997,https://www.yelp.com/biz/mediterranean-gourmet-oviedo?adjust_creative=XnY__OJbDP9eLQ62PmQlPw&utm_campaign=yelp_api_v3&utm_medium=api_v3_business_search&utm_source=XnY__OJbDP9eLQ62PmQlPw,28.66310399999999,-81.23430479999999,4.679154058525104,1700 Oviedo Mall Blvd,,,Oviedo,FL,32765,"1700 Oviedo Mall Blvd, Oviedo, FL 32765"
yelp,fyC1cTn0Brb4otDg-XGUmg,Dos Hermanos,5.0,4,,False,,,https://www.yelp.com/biz/dos-hermanos-oviedo?adjust_creative=XnY__OJbDP9eLQ62PmQlPw&utm_campaign=yelp_api_v3&utm_medium=api_v3_business_search&utm_source=XnY__OJbDP9eLQ62PmQlPw,28.663113978100306,-81.2343034627103,4.67973605376941,1700 Oviedo Mall Blvd,,,Oviedo,FL,32765,"1700 Oviedo Mall Blvd, Oviedo, FL 32765"
yelp,7vjMGr949XRl-j6pOnQMFg,Asian Express,4.7,17,,False,+14075427250,(407) 542-7250,https://www.yelp.com/biz/asian-express-oviedo?adjust_creative=XnY__OJbDP9eLQ62PmQlPw&utm_campaign=yelp_api_v3&utm_medium=api_v3_business_search&utm_source=XnY__OJbDP9eLQ62PmQlPw,28.663104,-81.234413,4.682066604377477,1700 Oviedo Mall Blvd,Ste 1530,,Oviedo,FL,32765,"1700 Oviedo Mall Blvd, Ste 1530, Oviedo, FL 32765"
yelp,_YyKKRxmXdLT8ZGfiAUzpA,Cafe Natura,4.8,20,,False,+14075424325,(407) 542-4325,https://www.yelp.com/biz/cafe-natura-oviedo?adjust_creative=XnY__OJbDP9eLQ62PmQlPw&utm_campaign=yelp_api_v3&utm_medium=api_v3_business_search&utm_source=XnY__OJbDP9eLQ62PmQlPw,28.66320013687024,-81.23424096048886,4.683395830750602,1505 Oviedo Blvd,,,Oviedo,FL,32765,"1505 Oviedo Blvd, Oviedo, FL 32765"
yelp,qXc1LQi_uL6zgALJHOpDxQ,CupPasta & Pizza - Oviedo,4.7,134,$,False,+14075421546,(407) 542-1546,https://www.yelp.com/biz/cuppasta-and-pizza-oviedo-oviedo?adjust_creative=XnY__OJbDP9eLQ62PmQlPw&utm_campaign=yelp_api_v3&utm_medium=api_v3_business_search&utm_source=XnY__OJbDP9eLQ62PmQlPw,28.6649869,-81.2370816,4.871303356471089,1510 Oviedo Mall Blvd,,,Oviedo,FL,32765,"1510 Oviedo Mall Blvd, Oviedo, FL 32765"
yelp,BKxni1zlB-aUQbTBq1daVQ,Lil Vinny’s,4.5,111,$$,False,+14075427114,(407) 542-7114,https://www.yelp.com/biz/lil-vinny-s-oviedo?adjust_creative=XnY__OJbDP9eLQ62PmQlPw&utm_campaign=yelp_api_v3&utm_medium=api_v3_business_search&utm_source=XnY__OJbDP9eLQ62PmQlPw,28.66843,-81.22918,4.891204686255708,2200 Winter Springs Blvd,Ste 111,,Oviedo,FL,32765,"2200 Winter Springs Blvd, Ste 111, Oviedo, FL 32765"
yelp,igjR74V5lNhvysM05OZyXA,Capital Hot Chicken,4.6,24,,False,+13217654897,(321) 765-4897,https://www.yelp.com/biz/capital-hot-chicken-oviedo?adjust_creative=XnY__OJbDP9eLQ62PmQlPw&utm_campaign=yelp_api_v3&utm_medium=api_v3_business_search&utm_source=XnY__OJbDP9eLQ62PmQlPw,28.66981697253437,-81.22496060401471,4.895963101761895,2200 Winter Springs Blvd,Ste 107,,Oviedo,FL,32765,"2200 Winter Springs Blvd, Ste 107, Oviedo, FL 32765"
yelp,KFuqBxk4-hh8CLr-z18xJg,Stefano's Trattoria,4.4,636,$$,False,+14076590101,(407) 659-0101,https://www.yelp.com/biz/stefanos-trattoria-winter-springs-2?adjust_creative=XnY__OJbDP9eLQ62PmQlPw&utm_campaign=yelp_api_v3&utm_medium=api_v3_business_search&utm_source=XnY__OJbDP9eLQ62PmQlPw,28.645359,-81.264654,4.913087636003322,1425 Tuskawilla Rd,Ste 205,,Winter Springs,FL,32708,"1425 Tuskawilla Rd, Ste 205, Winter Springs, FL 32708"
yelp,dLcUez09N8fH0IuZGQfdjQ,Deguzman Oriental Food Mart,4.3,40,$,False,+14072827772,(407) 282-7772,https://www.yelp.com/biz/deguzman-oriental-food-mart-orlando?adjust_creative=XnY__OJbDP9eLQ62PmQlPw&utm_campaign=yelp_api_v3&utm_medium=api_v3_business_search&utm_source=XnY__OJbDP9eLQ62PmQlPw,28.5685349,-81.2731499,5.0117651429779135,8433 E Colonial Dr,,,Orlando,FL,32817,"8433 E Colonial Dr, Orlando, FL 32817"
yelp,ALisPhj-3qsUzk9jD6Rh9A,Travelling Gourmet,4.4,7,$,False,+13212626628,(321) 262-6628,https://www.yelp.com/biz/travelling-gourmet-oviedo?adjust_creative=XnY__OJbDP9eLQ62PmQlPw&utm_campaign=yelp_api_v3&utm_medium=api_v3_business_search&utm_source=XnY__OJbDP9eLQ62PmQlPw,28.64094353,-81.12992096,5.02084757039603,,,,Oviedo,FL,32766,"Oviedo, FL 32766"
yelp,-i20Yl0MTUr-i1N-58-JJA,Island Fin Poke Company,4.5,361,$$,False,+14075433700,(407) 543-3700,https://www.yelp.com/biz/island-fin-poke-company-winter-springs?adjust_creative=XnY__OJbDP9eLQ62PmQlPw&utm_campaign=yelp_api_v3&utm_medium=api_v3_business_search&utm_source=XnY__OJbDP9eLQ62PmQlPw,28.6462,-81.26764,5.092883733677359,1450 Tuskawilla Rd,,,Winter Springs,FL,32708,"1450 Tuskawilla Rd, Winter Springs, FL 32708"
yelp,QPCThOSMR94LqeWNzyAalA,First Watch,4.2,23,$$,False,+16892292570,(689) 229-2570,https://www.yelp.com/biz/first-watch-winter-springs-3?adjust_creative=XnY__OJbDP9eLQ62PmQlPw&utm_campaign=yelp_api_v3&utm_medium=api_v3_business_search&utm_source=XnY__OJbDP9eLQ62PmQlPw,28.64614,-81.26811,5.113388073316663,5723 Red Bug Lake Rd,,,Winter Springs,FL,32708,"5723 Red Bug Lake Rd, Winter Springs, FL 32708"
yelp,3Jmn-j417jC4McG0xoJTwA,CAVA,4.2,114,$$,False,+16892292168,(689) 229-2168,https://www.yelp.com/biz/cava-winter-springs?adjust_creative=XnY__OJbDP9eLQ62PmQlPw&utm_campaign=yelp_api_v3&utm_medium=api_v3_business_search&utm_source=XnY__OJbDP9eLQ62PmQlPw,28.6481341,-81.2665148,5.119515613548998,5930 Red Bug Lake Rd,,,Winter Springs,FL,32708,"5930 Red Bug Lake Rd, Winter Springs, FL 32708"
yelp,4XOHGutxMjpBu6ZLGNzs0A,Heart of Jerusalem Cafe,4.5,125,,False,+14079602755,(407) 960-2755,https://www.yelp.com/biz/heart-of-jerusalem-cafe-winter-springs?adjust_creative=XnY__OJbDP9eLQ62PmQlPw&utm_campaign=yelp_api_v3&utm_medium=api_v3_business_search&utm_source=XnY__OJbDP9eLQ62PmQlPw,28.645939,-81.269295,5.16343551608747,5683 Red Bug Lake Rd,,,Winter Springs,FL,32708,"5683 Red Bug Lake Rd, Winter Springs, FL 32708"
yelp,ffMKfxhBS0p8PZruwby3KQ,Tsaocaa - Winter Springs,4.8,25,,False,+13219721559,(321) 972-1559,https://www.yelp.com/biz/tsaocaa-winter-springs-winter-springs?adjust_creative=XnY__OJbDP9eLQ62PmQlPw&utm_campaign=yelp_api_v3&utm_medium=api_v3_business_search&utm_source=XnY__OJbDP9eLQ62PmQlPw,28.648881,-81.266915,5.1705168709123654,5892 Red Bug Lake Rd,,,Winter Springs,FL,32708,"5892 Red Bug Lake Rd, Winter Springs, FL 32708"
yelp,fjhnVGid-Wf58nKon1uKxQ,Wawa,5.0,1,,False,+13217549100,(321) 754-9100,https://www.yelp.com/biz/wawa-orlando-67?adjust_creative=XnY__OJbDP9eLQ62PmQlPw&utm_campaign=yelp_api_v3&utm_medium=api_v3_business_search&utm_source=XnY__OJbDP9eLQ62PmQlPw,28.561114401311787,-81.12895858161953,5.173812498386541,16959 E Colonial Dr,,,Orlando,FL,32820,"16959 E Colonial Dr, Orlando, FL 32820"
yelp,Fj96bOf2iYTjmteDPeNcwA,Kiko Japanese Cuisine,4.4,331,$$,False,+14076775800,(407) 677-5800,https://www.yelp.com/biz/kiko-japanese-cuisine-winter-springs?adjust_creative=XnY__OJbDP9eLQ62PmQlPw&utm_campaign=yelp_api_v3&utm_medium=api_v3_business_search&utm_source=XnY__OJbDP9eLQ62PmQlPw,28.646102,-81.269508,5.1804938979704485,5661 Red Bug Lake Rd,,,Winter Springs,FL,32708,"5661 Red Bug Lake Rd, Winter Springs, FL 32708"
yelp,OSpU_DF50MSl8vNW5Xsm3g,Jersey Mike's Subs,4.0,27,$$,False,+14077904940,(407) 790-4940,https://www.yelp.com/biz/jersey-mikes-subs-winter-springs-3?adjust_creative=XnY__OJbDP9eLQ62PmQlPw&utm_campaign=yelp_api_v3&utm_medium=api_v3_business_search&utm_source=XnY__OJbDP9eLQ62PmQlPw,28.64756,-81.26949,5.23894947622126,5697 Red Bug Lake Rd,Ste 14,,Winter Springs,FL,32708,"5697 Red Bug Lake Rd, Ste 14, Winter Springs, FL 32708"
yelp,5Z2tJZ9jkM_2EpUn2UQzjw,Virgin Island Thyme,4.7,311,$$,False,+13218045357,(321) 804-5357,https://www.yelp.com/biz/virgin-island-thyme-orlando?adjust_creative=XnY__OJbDP9eLQ62PmQlPw&utm_campaign=yelp_api_v3&utm_medium=api_v3_business_search&utm_source=XnY__OJbDP9eLQ62PmQlPw,28.537781611514013,-81.15016673121154,5.395759895835645,457 Avalon Park S Blvd,,,Orlando,FL,32828,"457 Avalon Park S Blvd, Orlando, FL 32828"
yelp,mf77ydEQUHqa41TEk70pkA,Las Casitas Latin Restaurant,4.6,38,$$,False,+14073719001,(407) 371-9001,https://www.yelp.com/biz/las-casitas-latin-restaurant-orlando?adjust_creative=XnY__OJbDP9eLQ62PmQlPw&utm_campaign=yelp_api_v3&utm_medium=api_v3_business_search&utm_source=XnY__OJbDP9eLQ62PmQlPw,28.53767623134915,-81.15024114350774,5.3992555546233705,457 S Avalon Park Blvd,Ste 100,,Orlando,FL,32828,"457 S Avalon Park Blvd, Ste 100, Orlando, FL 32828"
yelp,ddKqU6sngBKrhNe51pxKQA,Joury Ice-Cream & Cafe,4.6,128,$,False,+13218044113,(321) 804-4113,https://www.yelp.com/biz/joury-ice-cream-and-cafe-orlando?adjust_creative=XnY__OJbDP9eLQ62PmQlPw&utm_campaign=yelp_api_v3&utm_medium=api_v3_business_search&utm_source=XnY__OJbDP9eLQ62PmQlPw,28.53767244284205,-81.150156,5.402369000840279,457 Avalon Park S Blvd,Ste 200,,Orlando,FL,32828,"457 Avalon Park S Blvd, Ste 200, Orlando, FL 32828"
yelp,5MjZHHTsPqMspOCGkFSJlw,Tratto Avalon Park,4.2,88,,False,+14074402140,(407) 440-2140,https://www.yelp.com/biz/tratto-avalon-park-alafaya?adjust_creative=XnY__OJbDP9eLQ62PmQlPw&utm_campaign=yelp_api_v3&utm_medium=api_v3_business_search&utm_source=XnY__OJbDP9eLQ62PmQlPw,28.5379334,-81.1491957,5.42044358505021,425 Avalon Park S Blvd,,,Alafaya,FL,32828,"425 Avalon Park S Blvd, Alafaya, FL 32828"
yelp,AoITYzEFIYowjVFSFJy_Yg,El Mesón Y Más,5.0,1,,False,+14073016694,(407) 301-6694,https://www.yelp.com/biz/el-mes%C3%B3n-y-m%C3%A1s-orlando?adjust_creative=XnY__OJbDP9eLQ62PmQlPw&utm_campaign=yelp_api_v3&utm_medium=api_v3_business_search&utm_source=XnY__OJbDP9eLQ62PmQlPw,28.558790370265015,-81.12579144537449,5.422774105956287,17162 Old Cheney Hwy,,,Orlando,FL,32833,"17162 Old Cheney Hwy, Orlando, FL 32833"
yelp,heMHfbHTwcVjKPsnYFFNAg,Shah Cuisine - Indian and Chinese,4.5,17,,False,+13218044160,(321) 804-4160,https://www.yelp.com/biz/shahi-indian-cuisine-orlando?adjust_creative=XnY__OJbDP9eLQ62PmQlPw&utm_campaign=yelp_api_v3&utm_medium=api_v3_business_search&utm_source=XnY__OJbDP9eLQ62PmQlPw,28.537593393555635,-81.149596,5.426011494868147,425 Avalon Park South Blvd 200,,,Orlando,FL,32828,"425 Avalon Park South Blvd 200, Orlando, FL 32828"
yelp,aBpppwrcfqG91GTt3Q344Q,Don Julio - Chickasaw,4.2,871,$$,False,+14079303735,(407) 930-3735,https://www.yelp.com/biz/don-julio-chickasaw-orlando?adjust_creative=XnY__OJbDP9eLQ62PmQlPw&utm_campaign=yelp_api_v3&utm_medium=api_v3_business_search&utm_source=XnY__OJbDP9eLQ62PmQlPw,28.535823,-81.274372,6.439892279466392,551 S Chickasaw Trl,,,Orlando,FL,32825,"551 S Chickasaw Trl, Orlando, FL 32825"
yelp,0ylNWojL5QsRRpQsJ2bapA,Tokyo Teppan Cafe,4.4,50,,False,+14072862727,(407) 286-2727,https://www.yelp.com/biz/tokyo-teppan-cafe-orlando?adjust_creative=XnY__OJbDP9eLQ62PmQlPw&utm_campaign=yelp_api_v3&utm_medium=api_v3_business_search&utm_source=XnY__OJbDP9eLQ62PmQlPw,28.53547423612997,-81.27474289773345,6.47286108613656,583 S Chickasaw Trl,,,Orlando,FL,32825,"583 S Chickasaw Trl, Orlando, FL 32825"
yelp,cNwvL84tBZIupf6O5-akbw,Cousins Maine Lobster - Orlando & Daytona,5.0,1,,False,+13212366050,(321) 236-6050,https://www.yelp.com/biz/cousins-maine-lobster-orlando-and-daytona-orlando?adjust_creative=XnY__OJbDP9eLQ62PmQlPw&utm_campaign=yelp_api_v3&utm_medium=api_v3_business_search&utm_source=XnY__OJbDP9eLQ62PmQlPw,28.541801,-81.373575,11.328434540871864,,,,Orlando,FL,32801,"Orlando, FL 32801"
yelp,xIbINpWc2TZorB9FnLvixw,Red Panda Noodle,4.6,49,,False,+14076201995,(407) 620-1995,https://www.yelp.com/biz/red-panda-noodle-orlando?adjust_creative=XnY__OJbDP9eLQ62PmQlPw&utm_campaign=yelp_api_v3&utm_medium=api_v3_business_search&utm_source=XnY__OJbDP9eLQ62PmQlPw,28.545485303231732,-81.3793991,11.56837344916624,274 N Orange Ave,,,Orlando,FL,32801,"274 N Orange Ave, Orlando, FL 32801"
yelp,JwlwrKulgSWPy4VPPTGyUA,Sabroso Sauce,5.0,2,,False,+14076803883,(407) 680-3883,https://www.yelp.com/biz/sabroso-sauce-orlando?adjust_creative=XnY__OJbDP9eLQ62PmQlPw&utm_campaign=yelp_api_v3&utm_medium=api_v3_business_search&utm_source=XnY__OJbDP9eLQ62PmQlPw,28.553278211585067,-81.41121733937001,13.251678431413426,2395 W Colonial Dr,,,Orlando,FL,32804,"2395 W Colonial Dr, Orlando, FL 32804"
yelp,ZWOilU4wdFnsnl-6Qv5qJQ,The Pass Kitchen,4.7,225,$$,False,+14076002359,(407) 600-2359,https://www.yelp.com/biz/the-pass-kitchen-altamonte-springs?adjust_creative=XnY__OJbDP9eLQ62PmQlPw&utm_campaign=yelp_api_v3&utm_medium=api_v3_business_search&utm_source=XnY__OJbDP9eLQ62PmQlPw,28.65522075151956,-81.42197169786601,13.94182551480848,970 Sunshine Ln,Ste C,,Altamonte Springs,FL,32714,"970 Sunshine Ln, Ste C, Altamonte Springs, FL 32714"
yelp,gcRAte8fVq7SFfpusuAKuA,Tacos Mazatlan,4.0,33,$,False,+14077791402,(407) 779-1402,https://www.yelp.com/biz/tacos-mazatlan-orlando-2?adjust_creative=XnY__OJbDP9eLQ62PmQlPw&utm_campaign=yelp_api_v3&utm_medium=api_v3_business_search&utm_source=XnY__OJbDP9eLQ62PmQlPw,28.36871,-81.25894,16.537105848187885,,,,Orlando,FL,32827,"Orlando, FL 32827"
yelp,vv9DS3NcbIt-_j78cMN5ug,El Barranquitruck,4.7,45,$,False,+17868790043,(786) 879-0043,https://www.yelp.com/biz/el-barranquitruck-orlando-6?adjust_creative=XnY__OJbDP9eLQ62PmQlPw&utm_campaign=yelp_api_v3&utm_medium=api_v3_business_search&utm_source=XnY__OJbDP9eLQ62PmQlPw,28.412075,-81.404096,18.064820499769553,9825 S Orange Blossom Trl,,,Orlando,FL,32806,"9825 S Orange Blossom Trl, Orlando, FL 32806"
yelp,QRYuVv6LbuXKD4GKxPHxMQ,Camel Tow Taco,4.6,46,$,False,+14074033068,(407) 403-3068,https://www.yelp.com/biz/camel-tow-taco-orlando?adjust_creative=XnY__OJbDP9eLQ62PmQlPw&utm_campaign=yelp_api_v3&utm_medium=api_v3_business_search&utm_source=XnY__OJbDP9eLQ62PmQlPw,28.455885077939115,-81.4710755655485,19.314656796901374,,,,Orlando,FL,32819,"Orlando, FL 32819"
yelp,i5xLglHzH7vyWvPvl4VKXw,QZO Pizza,4.8,17,,False,+14077147714,(407) 714-7714,https://www.yelp.com/biz/qzo-pizza-ocoee?adjust_creative=XnY__OJbDP9eLQ62PmQlPw&utm_campaign=yelp_api_v3&utm_medium=api_v3_business_search&utm_source=XnY__OJbDP9eLQ62PmQlPw,28.5697268,-81.5455229,21.078345175374206,101 W McKey St,,,Ocoee,FL,34761,"101 W McKey St, Ocoee, FL 34761"
yelp,w_jkSpTEgFdDMbK37qbVUw,Teq-A-Bite,4.2,49,$,False,+14074837996,(407) 483-7996,https://www.yelp.com/biz/teq-a-bite-kissimmee-3?adjust_creative=XnY__OJbDP9eLQ62PmQlPw&utm_campaign=yelp_api_v3&utm_medium=api_v3_business_search&utm_source=XnY__OJbDP9eLQ62PmQlPw,28.3035662,-81.3924788,23.725336736639836,1206 E Vine St,,,Kissimmee,FL,34744,"1206 E Vine St, Kissimmee, FL 34744"
yelp,W9DvCHjr90UW7oKuPtKHKw,NOB's Now,5.0,1,,False,+13212252231,(321) 225-2231,https://www.yelp.com/biz/nobs-now-titusville-2?adjust_creative=XnY__OJbDP9eLQ62PmQlPw&utm_campaign=yelp_api_v3&utm_medium=api_v3_business_search&utm_source=XnY__OJbDP9eLQ62PmQlPw,28.6122187,-80.8075537,23.820970641323314,,,,Titusville,FL,32780,"Titusville, FL 32780"
yelp,Xql2b7yE58m4gePiXY-fgw,Golden Meals,5.0,1,,False,+13865303007,(386) 530-3007,https://www.yelp.com/biz/golden-meals-deland?adjust_creative=XnY__OJbDP9eLQ62PmQlPw&utm_campaign=yelp_api_v3&utm_medium=api_v3_business_search&utm_source=XnY__OJbDP9eLQ62PmQlPw,29.043932,-81.302726,31.13305078357391,933 N Woodland Blvd,,,DeLand,FL,32720,"933 N Woodland Blvd, DeLand, FL 32720"
yelp,kqgcFPwYrkMlQzuF-CNREg,It’s In The DNA Coffee,5.0,7,,False,+13529321539,(352) 932-1539,https://www.yelp.com/biz/it-s-in-the-dna-coffee-eustis-2?adjust_creative=XnY__OJbDP9eLQ62PmQlPw&utm_campaign=yelp_api_v3&utm_medium=api_v3_business_search&utm_source=XnY__OJbDP9eLQ62PmQlPw,28.8533792,-81.6851034,34.12085188290104,24 E Magnolia Ave,,,Eustis,FL,32726,"24 E Magnolia Ave, Eustis, FL 32726"
